city,lon,lat,Max Temp,Humidity,Cloudiness,Wind Speed,Country,Date
bengkulu,102.2655,-3.8004,74.01,92,94,2.28,ID,1659565314
kodiak,-152.4072,57.79,67.51,56,0,13.8,US,1659565315
new norfolk,147.0587,-42.7826,51.93,86,50,1.01,AU,1659565315
punta arenas,-70.9167,-53.15,39.31,87,75,13.8,CL,1659565100
amderma,,,,,,,,
khatanga,102.5,71.9667,50.54,66,100,9.35,RU,1659565316
belushya guba,,,,,,,,
dingle,122.6711,10.9995,76.66,91,99,3.2,PH,1659565316
saint-augustin,-58.6502,51.226,66.7,70,16,10.36,CA,1659565316
nikolskoye,30.7861,59.7035,62.49,85,39,2.75,RU,1659565317
balkanabat,54.3671,39.5108,91.18,19,17,7.72,TM,1659565317
dudinka,86.1778,69.4058,51.62,67,15,2.51,RU,1659565317
busselton,115.3333,-33.65,52.99,72,91,17.07,AU,1659565317
antofagasta,-70.4,-23.65,58.28,77,4,10.36,CL,1659565088
tiksi,128.8694,71.6872,44.71,76,99,8.21,RU,1659565318
arman,150.1667,59.7,57.02,86,100,4.92,RU,1659565318
bredasdorp,20.0403,-34.5322,48,92,4,5.48,ZA,1659565318
rikitea,-134.9692,-23.1203,71.74,69,39,15.23,PF,1659565067
ushuaia,-68.3,-54.8,37.06,87,40,3.44,AR,1659565223
abu samrah,37.1841,35.3029,80.47,47,0,6.87,SY,1659565319
orito,-76.8771,0.6766,81.66,77,88,1.83,CO,1659565319
yatou,122.3833,37.15,78.15,95,1,6.02,CN,1659565320
asau,26.4,46.4333,66.96,88,7,4.72,RO,1659565320
mataura,168.8643,-46.1927,44.47,81,100,4.99,NZ,1659565320
saskylakh,114.0833,71.9167,47.16,59,100,10.63,RU,1659565320
anandpur sahib,76.5,31.25,79.54,83,35,3.58,IN,1659565321
illoqqortoormiut,,,,,,,,
chuy,-53.4616,-33.6971,57.47,99,100,5.5,UY,1659565321
piopio,175.0167,-38.4667,54.5,89,35,0.69,NZ,1659565321
attawapiskat,,,,,,,,
necochea,-58.7368,-38.5473,46.67,92,1,6.46,AR,1659565322
east london,27.9116,-33.0153,69.26,49,58,7.52,ZA,1659565322
chagda,,,,,,,,
meshchovsk,35.2808,54.3244,63.25,89,99,5.28,RU,1659565323
taolanaro,,,,,,,,
kita,-9.4895,13.0349,75.02,89,94,1.88,ML,1659565323
at-bashi,75.8106,41.1702,54.12,65,53,1.72,KG,1659565324
airai,125.4092,-8.9266,54.9,68,95,2.71,TL,1659565324
albany,-73.9662,42.6001,88.88,46,4,1.99,US,1659565200
vaini,-175.2,-21.2,75.27,81,25,18.39,TO,1659565326
jamestown,-79.2353,42.097,89.94,41,0,10.36,US,1659565326
provideniya,-173.3,64.3833,46.51,87,75,6.71,RU,1659565326
solovetskiy,,,,,,,,
sarh,18.3923,9.1429,75.11,100,0,3.44,TD,1659565327
ribeira grande,-28.7,38.5167,76.1,87,18,6.49,PT,1659565327
vila franca do campo,-25.4333,37.7167,73.81,88,35,5.88,PT,1659565328
ponta do sol,-17.1,32.6667,71.71,82,2,7.7,PT,1659565328
tasiilaq,-37.6368,65.6145,35.76,70,75,3,GL,1659565328
butaritari,172.7902,3.0707,81.59,77,87,15.57,KI,1659565329
maneadero,-116.5667,31.7167,73.09,79,37,4,MX,1659565329
andra,65.8878,62.5147,56.91,67,12,3.78,RU,1659565329
dunedin,170.5036,-45.8742,48.79,75,100,3,NZ,1659565254
sorong,131.25,-0.8833,77.72,88,100,7.09,ID,1659565330
sikonge,32.7667,-5.6333,71.11,37,90,4.5,TZ,1659565330
taksimo,114.8794,56.3444,61.45,80,96,3.69,RU,1659565331
mount isa,139.5,-20.7333,69.57,68,40,0,AU,1659565331
saint-philippe,55.7679,-21.3585,65.21,83,50,7.94,RE,1659565331
mushabani,86.45,22.5167,79.52,90,100,3.42,IN,1659565332
kapaa,-159.319,22.0752,82.72,66,20,11.5,US,1659565332
staunton,-79.0717,38.1496,88.18,55,0,8.05,US,1659565333
muisne,-80.0333,0.6,74.07,85,100,11.72,EC,1659565333
atuona,-139.0333,-9.8,77.29,79,15,13.67,PF,1659565225
nizhneyansk,,,,,,,,
sisimiut,-53.6735,66.9395,48.15,85,100,6.29,GL,1659565333
coeneo,-101.5833,19.8167,69.93,74,91,1.3,MX,1659565334
lakselv,24.9718,70.0513,58.82,72,0,9.22,NO,1659565334
mozhga,52.2276,56.4447,65.64,73,59,2.46,RU,1659565335
hovd,91.6419,48.0056,64.27,47,98,2.39,MN,1659565335
cabo san lucas,-109.9124,22.8909,94.6,43,0,9.22,MX,1659565335
kudahuvadhoo,72.8944,2.6708,81.05,77,97,19.55,MV,1659565336
badaojiang,,,,,,,,
almaznyy,40.045,48.0448,67.96,81,100,3.6,RU,1659565336
roma,-75.4557,43.2128,88.68,44,0,10.36,US,1659565142
lebu,-73.65,-37.6167,49.17,85,64,4.32,CL,1659565337
jawhar,45.5005,2.7809,74.43,80,54,14,SO,1659565337
dikson,80.5464,73.5069,41.9,99,100,9.26,RU,1659565337
puerto ayora,-90.3518,-0.7393,78.76,82,74,8.99,EC,1659565338
avarua,-159.775,-21.2078,77.05,53,20,16.11,CK,1659565338
gigmoto,124.39,13.7796,81.09,86,100,5.39,PH,1659565339
hilo,-155.09,19.7297,84.25,74,40,10.36,US,1659565339
victoria,114.1577,22.2855,82.45,86,100,8.01,HK,1659565336
moron,-58.6198,-34.6534,56.95,78,82,8.97,AR,1659565339
barrow,-156.7887,71.2906,53.94,58,100,12.97,US,1659565293
port elizabeth,25.5701,-33.918,59.29,88,0,13.8,ZA,1659565081
senno,33.9167,59.5336,53.26,82,9,2.75,RU,1659565340
umzimvubu,,,,,,,,
san patricio,-97.5169,28.017,99.18,43,46,21.88,US,1659565340
waipawa,175.5153,-41.4122,51.55,74,100,7.23,NZ,1659565341
cabatuan,122.486,10.8794,76.03,91,98,3.13,PH,1659565341
port lincoln,135.8667,-34.7333,56.44,68,2,27.36,AU,1659565341
namibe,12.1522,-15.1961,60.17,81,2,4.72,AO,1659565342
ayr,-4.6339,55.4627,57.18,88,75,4.61,GB,1659565342
srikakulam,83.9,18.3,81.5,78,100,2.62,IN,1659565342
hermanus,19.2345,-34.4187,52.81,84,3,12.28,ZA,1659565343
tomigusuku,127.675,26.185,83.97,84,40,4.61,JP,1659565343
lerwick,-1.1494,60.1545,53.6,81,37,13.73,GB,1659565343
beloha,45.05,-25.1667,63.07,83,0,10.25,MG,1659565344
naze,129.4833,28.3667,79.72,86,68,3.74,JP,1659565344
nchelenge,28.734,-9.3451,66.38,59,5,6.67,ZM,1659565344
chengde,117.9361,40.9725,76.1,81,100,1.57,CN,1659565344
polyarnyy,33.4478,69.1989,54.07,83,84,10.16,RU,1659565345
geraldton,114.6,-28.7667,59.41,72,75,13.8,AU,1659565345
tuktoyaktuk,-133.0374,69.4541,51.8,82,40,9.22,CA,1659565345
hobart,147.3294,-42.8794,52.27,82,20,17.27,AU,1659565346
los llanos de aridane,-17.9182,28.6585,71.13,89,75,18.41,ES,1659565346
bluff,168.3333,-46.6,44.8,69,100,21.72,NZ,1659565346
puerto penasco,-113.5333,31.3167,86.92,73,62,18.01,MX,1659565347
lavrentiya,-171,65.5833,49.53,80,28,7.7,RU,1659565347
xiangxiang,112.5333,27.7333,79.95,78,36,2.53,CN,1659565347
carnarvon,113.6333,-24.8667,64.8,58,100,17.9,AU,1659565348
ketchikan,-131.6461,55.3422,58.98,74,98,3.62,US,1659565348
shumskiy,99.1328,54.8318,52.43,92,100,2.84,RU,1659565348
dekar,21.9333,-21.5333,59.4,25,26,3.47,BW,1659565349
ishigaki,124.1572,24.3448,80.73,94,20,2.3,JP,1659565349
domoni,44.5319,-12.2569,73.08,77,0,2.33,KM,1659565349
hualmay,-77.6139,-11.0964,64.27,77,23,10.4,PE,1659565350
castro,-50.0119,-24.7911,61.45,68,4,5.21,BR,1659565350
lorengau,147.2712,-2.0226,81.05,83,87,12.06,PG,1659565350
betma,75.6167,22.6833,77.05,88,100,3.78,IN,1659565351
florianopolis,-48.5012,-27.6146,65.7,84,75,12.66,BR,1659565351
noumea,166.4572,-22.2763,76.98,99,61,10.18,NC,1659565351
kavieng,150.7967,-2.5744,82.15,79,94,17.85,PG,1659565351
mys shmidta,,,,,,,,
zhezkazgan,67.7144,47.8043,67.62,69,100,11.12,KZ,1659565352
sentyabrskiy,,,,,,,,
mount gambier,140.7667,-37.8333,49.19,86,20,11.74,AU,1659565352
yellowknife,-114.3525,62.456,66.72,37,40,12.66,CA,1659565353
manado,124.8455,1.487,74.17,94,40,3.44,ID,1659565353
chifeng,118.9636,42.2683,77.25,74,99,4.99,CN,1659565320
sampit,112.95,-2.5333,72.66,99,95,1.99,ID,1659565353
hannibal,-91.3585,39.7084,90.34,45,89,3.71,US,1659565080
faanui,-151.75,-16.4833,78.55,75,8,22.44,PF,1659565354
chara,118.2631,56.9064,63.99,77,100,2.75,RU,1659565354
ust-kuyga,135.6,70.0167,45.7,77,100,4,RU,1659565354
beidao,105.8933,34.5686,69.08,91,1,2.86,CN,1659565355
gasa,34.4667,31.5,79.03,78,7,3.02,PS,1659565355
akyab,92.9,20.15,81.82,83,100,10.85,MM,1659565355
atka,,,,,,,,
tuatapere,167.6833,-46.1333,49.23,79,97,10.25,NZ,1659565356
cape town,18.4232,-33.9258,55.9,80,94,5.01,ZA,1659565109
rio grande,-52.0986,-32.035,60.91,98,100,10.71,BR,1659565163
tabiauea,,,,,,,,
awjilah,21.2869,29.1081,81,59,0,15.14,LY,1659565356
keti bandar,67.4497,24.1447,81.61,85,100,9.35,PK,1659565357
iqaluit,-68.5145,63.7506,49.73,71,40,9.22,CA,1659565357
vaitupu,,,,,,,,
pevek,170.3133,69.7008,34.92,99,100,9.73,RU,1659565357
georgetown,100.3354,5.4112,78.89,90,20,2.3,MY,1659565358
chemax,-87.9333,20.65,94.21,37,28,6.55,MX,1659565358
ballitoville,31.2144,-29.539,61.25,94,43,3.44,ZA,1659565358
ashland,-82.2665,40.8167,89.28,62,1,14.92,US,1659565359
lagoa,-27.9833,39.05,75.11,88,4,8.77,PT,1659565359
nurota,65.6886,40.5614,74.17,31,0,2.39,UZ,1659565359
shenjiamen,122.298,29.9576,82.87,86,1,15.37,CN,1659565359
lloydminster,-110.0016,53.2835,64.62,82,100,8.05,CA,1659565360
calmar,-113.8187,53.2668,66.54,80,100,2.3,CA,1659565360
yanam,82.2167,16.7333,78.75,91,100,1.03,IN,1659565360
boca do acre,-67.3978,-8.7522,85.1,58,100,2.57,BR,1659565361
manuk mangkaw,119.85,4.8,82.99,71,98,3.98,PH,1659565361
mul,79.6667,20.0667,78.26,89,90,5.46,IN,1659565361
tapaua,,,,,,,,
santa isabel do rio negro,-65.0192,-0.4139,78.04,95,99,1.66,BR,1659565362
carballo,-8.691,43.213,68.02,92,46,7.63,ES,1659565075
chiche,-91.065,15.0086,72.46,46,81,7.65,GT,1659565362
cowra,148.6833,-33.8333,58.17,91,100,18.66,AU,1659565362
luderitz,15.1594,-26.6481,54.34,93,0,12.55,NA,1659565363
zhangye,100.4517,38.9342,75.42,51,9,3.56,CN,1659565363
haifa,34.9892,32.8156,72.21,80,0,2.21,IL,1659565069
arraial do cabo,-42.0278,-22.9661,69.76,83,0,4.61,BR,1659565337
port alfred,26.891,-33.5906,60.19,91,33,1.01,ZA,1659565363
bethel,-73.414,41.3712,90.45,48,0,6.91,US,1659565364
bathsheba,-59.5167,13.2167,83.05,87,75,18.41,BB,1659565364
grindavik,-22.4338,63.8424,48.67,76,40,11.5,IS,1659565364
kaitangata,169.8464,-46.2817,44.49,80,100,3.87,NZ,1659565365
vanimo,141.3028,-2.6741,78.03,91,100,5.17,PG,1659565365
westport,-73.3579,41.1415,91.31,52,0,5.75,US,1659565365
kargasok,80.8572,59.0556,49.39,73,2,6.98,RU,1659565366
barentsburg,,,,,,,,
mar del plata,-57.5575,-38.0023,50.88,92,100,5.75,AR,1659565091
kamenka,42.7678,51.3223,70.54,52,100,11.03,RU,1659565366
hithadhoo,73.0833,-0.6,80.56,75,96,17.87,MV,1659565366
kahului,-156.47,20.8947,87.82,51,40,21.85,US,1659565248
yeppoon,150.7333,-23.1333,65.98,86,13,6.91,AU,1659565280
canitas,,,,,,,,
rawannawi,,,,,,,,
bur gabo,,,,,,,,
walvis bay,14.5053,-22.9575,54.09,93,12,3.44,NA,1659565367
rio gallegos,-69.2181,-51.6226,37.45,100,75,12.66,AR,1659565297
ocos,-92.1933,14.5094,86.18,73,100,4.36,GT,1659565367
neryungri,124.6491,56.6709,61.43,95,82,4.34,RU,1659565368
krasnoselkup,82.4667,65.7,49.75,71,18,6.42,RU,1659565368
mandan,-100.8896,46.8267,82.38,45,0,5.75,US,1659565368
battle creek,-85.1797,42.3212,73.45,43,97,16.28,US,1659565207
grand river south east,,,,,,,,
kaka,59.6143,37.3482,83.57,23,0,7.25,TM,1659565088
shancheng,116.0817,34.7953,79.68,87,6,6.15,CN,1659565369
dwarka,68.9678,22.2394,82.2,78,100,9.91,IN,1659565369
am timan,20.2827,11.0297,75.22,83,88,4.59,TD,1659565370
upernavik,-56.1549,72.7868,43.66,77,5,12.06,GL,1659565370
saquena,-73.5167,-4.6667,82.27,81,55,0.65,PE,1659565370
yar-sale,70.8333,66.8333,57.83,66,49,9.08,RU,1659565370
twentynine palms,-116.0542,34.1356,105.94,21,90,3,US,1659565371
raudeberg,5.1352,61.9875,56.07,67,97,19.19,NO,1659565323
touros,-35.4608,-5.1989,76.12,83,25,6.6,BR,1659565371
gold coast,153.4333,-28,66.27,92,15,8.05,AU,1659565229
takayama,137.25,36.1333,71.31,94,63,0.72,JP,1659565372
christchurch,172.6333,-43.5333,51.91,75,100,4,NZ,1659565296
acarau,-40.12,-2.8856,78.13,73,68,13.35,BR,1659565372
montabaur,7.8333,50.4333,81.05,54,52,3.51,DE,1659565372
te anau,167.7167,-45.4167,46,91,98,6.96,NZ,1659565373
arrecife,-13.5477,28.963,73.38,78,20,21.85,ES,1659565373
camacari,-38.3242,-12.6975,76.77,80,43,6.06,BR,1659565102
corn island,-83.0418,12.1694,81.25,79,100,18.41,NI,1659565373
xai-xai,33.6442,-25.0519,61.09,77,0,8.5,MZ,1659565374
soure,-48.5233,-0.7167,79.59,81,17,11.74,BR,1659565374
torring,9.4833,55.85,64.24,90,4,5.84,DK,1659565374
thompson,-97.8558,55.7435,62.76,51,75,8.05,CA,1659565375
hofn,-15.2082,64.2539,48.13,75,75,18.84,IS,1659565375
inhambane,35.3833,-23.865,65.46,69,0,6.08,MZ,1659565375
rosetown,-108.0014,51.5501,76.98,36,87,10.36,CA,1659565376
tiebissou,-5.2257,7.1574,73.49,96,74,5.35,CI,1659565376
nuuk,-51.7216,64.1835,48.81,93,100,0,GL,1659565376
shenzhen,114.0683,22.5455,82.35,84,100,1.92,CN,1659565091
nikel,30.222,69.4128,57.38,78,78,8.7,RU,1659565377
mildura,142.15,-34.2,56.68,63,56,2.42,AU,1659565377
lasa,10.7002,46.6166,68.88,89,17,1.83,IT,1659565377
matara,80.5353,5.9485,76.62,85,100,18.23,LK,1659565378
aklavik,-135.0107,68.2191,64.4,63,40,5.75,CA,1659565378
ola,151.2833,59.5833,57.15,87,100,13.27,RU,1659565378
banda aceh,95.3222,5.5577,78.87,70,100,13.31,ID,1659565379
sao filipe,-24.4956,14.8961,77.41,85,74,4.85,CV,1659565379
doka,35.7667,13.5167,71.31,86,89,5.21,SD,1659565379
hunza,,,,,,,,
pangody,74.4859,65.85,58.1,60,67,6.8,RU,1659565379
tazovskiy,78.7,67.4667,53.51,72,63,6.62,RU,1659565380
richards bay,32.0377,-28.783,65.25,71,25,14.38,ZA,1659565380
phan rang,,,,,,,,
ancud,-73.8203,-41.8697,43.23,80,81,9.48,CL,1659565381
gorontalo,123.0595,0.5412,73.8,94,62,1.97,ID,1659565381
barao de melgaco,-55.9675,-16.1944,83.84,20,6,2.71,BR,1659565381
saleaula,,,,,,,,
korla,86.1469,41.7597,81.55,29,4,6.67,CN,1659565382
huarmey,-78.1522,-10.0681,65.44,77,21,11.72,PE,1659565382
saint george,-113.5841,37.1041,102.25,24,0,4,US,1659565382
esso,158.7,55.9333,53.28,91,100,3.85,RU,1659565383
torredonjimeno,-3.9578,37.7675,86.34,26,0,1.99,ES,1659565383
varadero,-81.2514,23.1536,79.56,73,27,17.78,CU,1659565384
tumannyy,,,,,,,,
ponta delgada,-25.6667,37.7333,74.12,88,20,9.22,PT,1659565384
aksu,80.2644,41.1231,69.87,47,100,5.01,CN,1659565384
clyde river,-68.5914,70.4692,39.43,100,100,12.66,CA,1659565385
khonuu,,,,,,,,
januaria,-44.3667,-15.4833,75.94,31,0,2.1,BR,1659565385
mahebourg,57.7,-20.4081,68.29,77,40,6.91,MU,1659565386
komsomolskiy,71.7189,40.4272,74.91,41,23,2.15,UZ,1659565386
norman wells,-126.8329,65.282,62.64,67,75,11.5,CA,1659565386
porangatu,-49.1486,-13.4408,80.85,27,3,3.11,BR,1659565387
acin,,,,,,,,
guerrero negro,-114.0611,27.9769,78.96,61,22,19.44,MX,1659565387
syasstroy,32.5691,60.1367,60.8,87,86,7.49,RU,1659565388
ust-nera,143.2,64.5667,69.3,69,51,6.44,RU,1659565388
wenling,121.36,28.3669,81.72,85,13,6.04,CN,1659565389
villanueva,-88,15.3167,89.04,66,40,16.11,HN,1659565389
praia da vitoria,-27.0667,38.7333,77.76,94,40,2.57,PT,1659565389
hopelchen,-89.85,19.7667,97.47,29,62,1.92,MX,1659565390
charlestown,151.6667,-32.95,63.68,76,100,5.99,AU,1659565390
ahipara,173.1667,-35.1667,59,81,3,4.47,NZ,1659565391
biloela,150.5,-24.4167,61.52,80,4,3.13,AU,1659565391
karratha,116.8463,-20.7377,62.92,69,4,11.07,AU,1659565391
camacha,-16.3333,33.0833,67.42,73,75,13.8,PT,1659565392
laguna,-121.4238,38.421,105.76,30,0,6.91,US,1659565392
pervomayskoye,46.7102,43.919,72.82,71,17,5.68,RU,1659565392
longhua,114.1919,23.6137,75.15,95,49,2.59,CN,1659565393
yomitan,,,,,,,,
honiara,159.95,-9.4333,83.48,69,6,6.85,SB,1659565393
kalmunai,81.8167,7.4167,78.24,75,98,7.16,LK,1659565393
nivala,24.9667,63.9167,61.68,86,88,9.89,FI,1659565394
stornoway,-6.3865,58.2093,53.92,93,75,4.61,GB,1659565394
qaanaaq,-69.3632,77.484,46,61,77,1.45,GL,1659565394
belaya gora,146.4167,68.5333,47.57,94,100,9.53,RU,1659565395
kruisfontein,24.7314,-34.0033,54.03,95,66,5.46,ZA,1659565396
fortuna,-124.1573,40.5982,72.93,75,20,14.97,US,1659565338
bahia blanca,-62.2724,-38.7196,47.84,65,0,3.56,AR,1659565397
codrington,141.9667,-38.2667,49.37,91,0,17,AU,1659565397
namatanai,152.4333,-3.6667,79.9,84,64,10.96,PG,1659565398
half moon bay,-122.4286,37.4636,92.53,73,100,20.71,US,1659565398
san andres,-81.7006,12.5847,84.22,79,40,13.8,CO,1659565182
borogontsy,131.1683,62.6683,67.64,85,39,3,RU,1659565399
sao joao da barra,-41.0511,-21.6403,69.4,86,0,9.53,BR,1659565399
ahvaz,48.6693,31.3203,103.95,37,5,4.61,IR,1659565399
auki,160.7034,-8.7676,81.34,75,25,4.18,SB,1659565400
songkhla,100.6667,6.8333,81.84,89,100,3.91,TH,1659565400
requena,-1.1004,39.4883,72.79,61,2,5.55,ES,1659565400
vytegra,36.4481,61.0064,60.21,82,91,3.29,RU,1659565401
salalah,54.0924,17.0151,78.89,94,100,3.44,OM,1659565401
souillac,57.5167,-20.5167,68.38,77,40,6.91,MU,1659565401
sitka,-135.33,57.0531,60.69,77,100,4.61,US,1659565219
zaozerne,33.2787,45.1582,73.02,74,0,6.29,UA,1659565402
ugoofaaru,73,5.6667,80.55,80,100,23.42,MV,1659565402
flinders,150.8552,-34.5833,65.37,77,100,5.99,AU,1659565403
vila,-8.1588,42.0304,67.69,78,3,5.06,PT,1659565403
batticaloa,81.6924,7.7102,80.13,69,100,8.99,LK,1659565403
puri,85.85,19.8,81.12,77,100,2.53,IN,1659565403
dubrovka,33.5071,53.6907,63.55,88,97,6.31,RU,1659565404
bud,-86.1758,39.447,91.38,63,8,13.6,US,1659565404
salinas,-121.6555,36.6777,99.57,61,0,16.11,US,1659565160
carutapera,-46.02,-1.195,77.02,86,45,7.14,BR,1659565405
le mars,-96.1656,42.7942,92.71,48,0,10.36,US,1659565135
beaverlodge,-119.4361,55.2166,67.35,32,100,10.87,CA,1659565405
grand gaube,57.6608,-20.0064,68.4,67,99,16.8,MU,1659565405
tahoua,5.2692,14.8888,90.05,42,68,6.24,NE,1659565406
tshikapa,20.8,-6.4167,80.94,42,60,0.89,CD,1659565406
saldanha,17.9442,-33.0117,53.65,71,82,7.4,ZA,1659565406
alice springs,133.8833,-23.7,69.35,32,75,8.05,AU,1659565407
luau,22.2247,-10.7073,75.72,27,97,3.76,AO,1659565407
puerto colombia,-74.9547,10.9878,84.29,79,100,9.53,CO,1659565179
torbay,-52.7314,47.6666,72.75,84,40,18.41,CA,1659565407
saint pete beach,-82.7412,27.7253,91.29,61,0,10.36,US,1659565408
bakchar,82.0711,57.0186,49.46,86,10,5.14,RU,1659565408
sternai,,,,,,,,
san jose,-121.895,37.3394,97.9,45,20,14.97,US,1659565383
leh,77.5833,34.1667,62.37,39,2,4.79,IN,1659565409
isangel,169.2667,-19.55,77.11,94,75,0,VU,1659565367
pafos,32.4167,34.7667,78.58,78,75,4.61,CY,1659565409
jiujiang,115.9833,29.7333,81.77,82,0,2.75,CN,1659565409
coahuayana,-103.6833,18.7333,90.01,59,97,6.06,MX,1659565410
kamen-rybolov,132.0403,44.7481,70.63,92,29,5.64,RU,1659565410
sosnogorsk,53.8817,63.6023,62.13,74,53,5.64,RU,1659565410
socorro,-106.3033,31.6546,102.49,22,75,10.36,US,1659565410
kavaratti,72.642,10.5669,77.5,89,100,34.65,IN,1659565411
bambous virieux,57.7575,-20.3428,68.25,77,40,6.91,MU,1659565411
ruatoria,,,,,,,,
karauzyak,,,,,,,,
mozhaysk,36.0272,55.5019,66.87,74,100,2.73,RU,1659565412
vardo,31.1107,70.3705,51.78,100,100,3.44,NO,1659565412
teya,92.6267,60.3778,50.04,99,100,2.73,RU,1659565412
ust-maya,134.5333,60.4167,68.16,64,100,7.05,RU,1659565413
solvychegodsk,46.9156,61.3305,65.64,78,96,2.84,RU,1659565413
wanning,110.3967,18.8003,79.41,88,100,6.96,CN,1659565253
cockburn harbour,,,,,,,,
chokurdakh,147.9167,70.6333,46.98,72,100,10.2,RU,1659565413
juneau,-134.4197,58.3019,59,97,100,3.44,US,1659565274
boa vista,-60.6733,2.8197,75.18,78,100,17.27,BR,1659565414
oda,132.5,35.1833,81.37,85,29,14.76,JP,1659565414
sozimskiy,52.2482,59.7418,59.97,78,100,1.83,RU,1659565414
flin flon,-101.865,54.7682,67.84,40,75,9.22,CA,1659565415
svetlaya,138.3297,46.5389,66.33,98,90,1.07,RU,1659565415
nanortalik,-45.2371,60.1432,50.23,91,100,20.54,GL,1659565416
sokolow podlaski,22.2531,52.4068,64.42,69,77,7.9,PL,1659565416
oistins,-59.5333,13.0667,82.51,78,75,18.41,BB,1659565416
mahadday weyne,,,,,,,,
vilcun,-72.2333,-38.65,43.54,90,19,2.01,CL,1659565417
klyuchi,79.1667,52.2667,56.84,61,23,7.72,RU,1659565417
jarjis,,,,,,,,
mergui,,,,,,,,
buchanan,-10.0467,5.8808,75.74,86,89,10.11,LR,1659565418
takoradi,-1.7554,4.8845,72.54,81,10,8.57,GH,1659565418
lompoc,-120.4579,34.6391,93.69,68,0,12.66,US,1659565418
alofi,-169.9187,-19.0595,80.49,65,45,14.97,NU,1659565418
luangwa,30.4167,-15.6167,70.68,61,90,3.89,ZM,1659565419
karaul,,,,,,,,
cidreira,-50.2056,-30.1811,62.51,93,77,19.13,BR,1659565419
sorvag,,,,,,,,
yongan,113.6871,39.6957,71.2,78,61,3.74,CN,1659565419
tombouctou,-3,20,84.25,57,39,16.08,ML,1659565420
pangnirtung,-65.7125,66.1451,48.2,81,75,4.61,CA,1659565420
benguela,13.4055,-12.5763,65.61,79,0,4.18,AO,1659565420
ajdabiya,20.2263,30.7554,82,37,0,10.18,LY,1659565421
haines junction,-137.5108,60.7522,62.55,63,100,8.05,CA,1659565421
itaueira,-43.0256,-7.6033,85.98,39,59,11.07,BR,1659565421
pingliang,106.6861,35.5392,68.59,86,4,2.1,CN,1659565422
severo-kurilsk,156.125,50.6789,54.75,82,47,6.82,RU,1659565422
tawkar,,,,,,,,
garowe,48.4845,8.4054,74.07,71,36,29.95,SO,1659565422
yulara,130.9889,-25.2406,54.34,46,86,7.61,AU,1659565211
tsihombe,,,,,,,,
ilhabela,-45.3581,-23.7781,67.75,90,9,7.87,BR,1659565423
dese,39.6333,11.1333,55.62,80,97,2.73,ET,1659565423
srednekolymsk,153.6833,67.45,52.57,84,100,5.06,RU,1659565423
manta,-80.7333,-0.95,74.98,73,75,8.05,EC,1659565424
yarada,83.2667,17.65,82.72,83,40,2.3,IN,1659565424
ostrovnoy,39.5131,68.0531,53.8,88,34,15.88,RU,1659565424
arkhangelsk,40.5433,64.5401,51.91,100,20,4.47,RU,1659565425
amot,7.9877,59.5714,54.77,95,44,2.91,NO,1659565425
vestmannaeyjar,-20.2734,63.4427,48.29,75,59,25.77,IS,1659565425
rawson,-65.1023,-43.3002,48.04,67,26,14,AR,1659565426
marcona,,,,,,,,
hailar,119.7,49.2,69.76,72,13,7.9,CN,1659565426
nalut,10.85,30.3333,87.87,22,3,2.19,LY,1659565426
alta floresta,-56.0861,-9.8756,85.08,29,73,4.05,BR,1659565427
seydi,62.9137,39.4816,80.46,25,0,8.95,TM,1659565427
nuevo progreso,-97.95,23.1667,94.53,49,87,5.99,MX,1659565427
serenje,30.2352,-13.2325,59.74,67,90,6.46,ZM,1659565428
yumen,97.2,40.2833,74.52,35,0,11.63,CN,1659565428
andrelandia,-44.3092,-21.7397,67.66,53,38,5.35,BR,1659565428
okoneshnikovo,75.0834,54.8377,55.35,85,5,6.44,RU,1659565279
klaksvik,-6.589,62.2266,49.12,81,71,14.56,FO,1659565429
dzhusaly,,,,,,,,
vostok,135.8833,46.4856,67.57,91,76,3.02,RU,1659565429
mokhsogollokh,128.9203,61.4681,64.49,89,100,4.74,RU,1659565429
kieta,155.6333,-6.2167,80.29,84,90,6.17,PG,1659565430
great yarmouth,1.7305,52.6083,71.85,74,83,8.93,GB,1659565430
kuito,16.9333,-12.3833,61.2,48,9,3.42,AO,1659565430
acapulco,-99.8901,16.8634,87.62,70,75,5.75,MX,1659565268
san cristobal,-72.225,7.7669,75.38,85,99,2.75,VE,1659565431
saint anthony,-93.218,45.0205,86.14,45,40,17.27,US,1659565431
pangai,-174.35,-19.8,76.93,78,3,21.43,TO,1659565431
oyama,139.8,36.3,79.59,85,100,3.29,JP,1659565432
tabarqah,,,,,,,,
viedma,-62.9967,-40.8135,48.47,49,8,5.99,AR,1659565228
kamina,24.9906,-8.7386,65.16,39,1,5.41,CD,1659565432
altamira,-52.2064,-3.2033,81.64,58,99,0.74,BR,1659565432
zheleznodorozhnyy,38.0042,55.7503,68.61,57,100,4.92,RU,1659565433
puerto leguizamo,-74.7819,-0.1934,79.72,84,68,0.87,CO,1659565433
igarka,86.5833,67.4667,47.98,73,10,7.54,RU,1659565433
yalta,34.1667,44.5,71.73,70,0,5.17,UA,1659565434
manakara,48.0167,-22.1333,67.15,80,98,3.85,MG,1659565434
shelby,-89.8668,35.2001,93.15,62,20,8.05,US,1659565434
jinchang,102.1739,38.4953,77.25,53,95,4,CN,1659565434
nador,-2.9287,35.174,80.67,83,0,9.22,MA,1659565296
tambacounda,-13.7586,13.7539,78.85,94,75,2.3,SN,1659565435
saleilua,,,,,,,,
utiroa,,,,,,,,
muncar,114.3333,-8.4333,72.21,92,73,1.14,ID,1659565435
hammerfest,23.6821,70.6634,63.05,55,75,8.05,NO,1659565436
constitucion,-72.4167,-35.3333,50.4,80,65,9.62,CL,1659565436
mwinilunga,24.4293,-11.7358,62.58,39,0,7.36,ZM,1659565436
husavik,-17.3389,66.0449,44.38,97,100,13.87,IS,1659565437
shangrao,117.9686,28.4532,79.25,80,0,2.84,CN,1659565437
nome,-165.4064,64.5011,54.16,87,100,6.91,US,1659565437
saint-pierre,55.4781,-21.3393,66.9,78,40,5.75,RE,1659565437
sambava,50.1667,-14.2667,66.18,87,5,8.99,MG,1659565438
da nang,108.2208,16.0678,76.98,94,20,3.44,VN,1659565260
hasaki,140.8333,35.7333,75.29,87,100,13.29,JP,1659565438
livingston,-3.5226,55.9029,57.13,81,0,9.22,GB,1659565439
mirnyy,113.9611,62.5353,57.24,93,100,7,RU,1659565439
kondinskoye,67.41,59.6481,56.66,72,34,2.28,RU,1659565439
cooma,149.1333,-36.2333,53.2,90,30,11.74,AU,1659565439
lago da pedra,-45.1667,-4.3333,81.1,55,74,3.27,BR,1659565440
kilemary,46.8659,56.7783,66.83,76,97,2.51,RU,1659565268
katsuura,140.3,35.1333,78.82,91,92,16.93,JP,1659565440
palabuhanratu,,,,,,,,
adrar,-10.0711,20.5022,98.2,23,7,12.35,MR,1659565441
qaqortoq,-46.0333,60.7167,46.92,97,100,13.35,GL,1659565441
broken hill,141.4333,-31.95,59.25,92,72,18.32,AU,1659565441
caconda,15.0667,-13.7333,59.25,45,13,3.27,AO,1659565442
harindanga,88.3214,22.0383,82.27,80,100,3.83,IN,1659565442
tual,132.75,-5.6667,79.74,84,61,15.03,ID,1659565442
ust-ilimsk,102.6619,58.0006,49.69,91,70,3.96,RU,1659565443
calama,-68.9333,-22.4667,61.29,17,0,18.41,CL,1659565443
mana,-53.7767,5.6592,78.64,88,85,9.93,GF,1659565443
hervey bay,152.8535,-25.2986,62.02,97,1,3,AU,1659565320
pacifica,-122.4869,37.6138,90.07,81,20,20.71,US,1659565444
hami,93.45,42.8,82.26,21,0,6.11,CN,1659565444
beringovskiy,179.3167,63.05,52,79,100,7.29,RU,1659565445
broome,-75.833,42.2506,90.7,38,0,7,US,1659565445
bontang,117.5,0.1333,75.65,90,54,4.36,ID,1659565445
nantucket,-70.0995,41.2835,79.09,83,0,5.75,US,1659565446
kamenskoye,,,,,,,,
progreso,-89.6667,21.2833,95.11,72,6,16.6,MX,1659565446
ndioum,-14.6471,16.5129,85.89,52,100,14.72,SN,1659565446
launceston,147.1667,-41.45,51.8,94,40,11.5,AU,1659565447
meyungs,,,,,,,,
nemuro,145.575,43.3236,59.56,91,98,9.84,JP,1659565447
parabel,81.4825,58.6978,49.24,78,0,6.67,RU,1659565447
oksfjord,22.3479,70.2396,60.98,72,100,8.72,NO,1659565448
veraval,70.3667,20.9,81.5,82,93,5.55,IN,1659565448
kaseda,130.3167,31.4167,82.09,82,45,2.28,JP,1659565448
mufulira,28.2407,-12.5498,59.79,58,58,4.72,ZM,1659565449
maracaibo,-71.6406,10.6317,85.44,63,100,9.98,VE,1659565449
mareeba,145.4333,-17,68.43,88,88,3.94,AU,1659565449
ulladulla,150.4667,-35.35,64.81,73,95,18.39,AU,1659565450
tevriz,72.4042,57.509,53.53,82,17,3.74,RU,1659565450
bereda,-7.5406,43.2686,67.41,100,99,4.79,ES,1659565450
sinnamary,-52.95,5.3833,79.16,86,83,10.47,GF,1659565451
katakwi,33.9661,1.8911,66.07,87,76,4.03,UG,1659565451
kosino,51.2782,58.4127,60.17,80,100,2.82,RU,1659565451
sorland,12.6934,67.667,55.26,93,94,15.55,NO,1659565452
ulaanbaatar,106.8832,47.9077,57.33,94,75,4.47,MN,1659565200
empalme,-110.8167,27.9667,100.35,63,20,12.66,MX,1659565452
berlevag,29.0864,70.8578,58.8,91,54,8.03,NO,1659565453
port maria,-76.8895,18.3685,85.96,84,93,10.38,JM,1659565453
nuevo casas grandes,-107.9167,30.4167,88.75,37,3,4,MX,1659565453
longyearbyen,15.6401,78.2186,49.84,81,75,11.5,SJ,1659565301
fayaoue,166.5333,-20.65,75.76,84,0,13.02,NC,1659565454
bairiki,172.9752,1.3292,84.2,74,40,13.8,KI,1659565454
hamilton,-84.5333,39.1834,92.25,55,40,13.8,US,1659565455
newport,-2.9984,51.5877,64.02,82,46,7.61,GB,1659565455
cecina,10.524,43.3128,83.34,58,1,3.11,IT,1659565455
lugazi,32.9197,0.3772,64.69,82,73,1.72,UG,1659565456
dubenskiy,,,,,,,,
carahue,-73.1667,-38.7,45.82,91,23,2.17,CL,1659565456
santa maria del oro,-105.3667,25.9333,84.25,31,63,11.32,MX,1659565456
bloemhof,25.607,-27.6469,56.39,69,98,7.85,ZA,1659565457
esperance,121.9,-33.8667,49.84,65,91,30.04,AU,1659565457
memaliaj,19.9803,40.3517,74.32,54,5,2.53,AL,1659565457
pauini,-66.9764,-7.7136,85.19,58,94,3.94,BR,1659565458
akcaabat,39.5715,41.0212,78.67,83,75,0,TR,1659565458
pecos,-103.4932,31.4229,107.69,14,0,0,US,1659565174
slidell,-89.7812,30.2752,86.05,74,0,3.44,US,1659565278
gamba,10,-2.65,69.76,89,3,7.94,GA,1659565459
baykit,96.37,61.67,49.03,94,98,3.65,RU,1659565305
dekoa,,,,,,,,
zhanjiang,110.3427,21.2815,80.64,83,100,4.14,CN,1659565459
ahuimanu,-157.8378,21.4447,85.75,63,20,14.97,US,1659565460
rungata,,,,,,,,
kutum,24.6667,14.2,69.89,79,99,12.3,SD,1659565460
coatzintla,-97.45,20.4833,90.18,58,0,11.5,MX,1659565461
canto do buriti,-42.9444,-8.11,84.83,39,48,9.33,BR,1659565461
dolbeau,,,,,,,,
warqla,,,,,,,,
galesburg,-90.3712,40.9478,87.78,74,0,8.05,US,1659565461
high level,-117.136,58.5169,68.11,56,75,12.66,CA,1659565462
doctor pedro p. pena,,,,,,,,
ye,,,,,,,,
hirara,125.2833,24.8,82.26,94,20,4.61,JP,1659565462
bara,10.7288,10.3744,72.66,88,53,5.35,NG,1659565463
tamandare,-35.1047,-8.7597,75.47,89,99,15.28,BR,1659565463
andenes,16.1194,69.3143,57.18,88,100,0,NO,1659565463
helong,128.9972,42.5397,71.53,95,68,3.22,CN,1659565463
la romana,-68.9728,18.4273,86.36,66,75,9.22,DO,1659565464
fort nelson,-122.7002,58.8053,65.79,59,75,2.3,CA,1659565464
belgrade,20.4651,44.804,75.33,63,0,5.75,RS,1659565326
kisangani,25.2,0.5167,74.97,78,96,1.83,CD,1659565465
henties bay,14.2845,-22.116,54.32,91,68,6.04,NA,1659565465
vila velha,-40.2925,-20.3297,75.15,86,75,4.61,BR,1659565465
cherskiy,161.3,68.75,47.23,80,100,7.54,RU,1659565466
karkaralinsk,,,,,,,,
saraza,117.78,8.7356,78.94,81,100,1.3,PH,1659565466
luanshya,28.4166,-13.1367,60.03,58,26,5.17,ZM,1659565466
manaure,-72.4445,11.7751,86.2,58,100,16.87,CO,1659565467
charters towers,146.2667,-20.1,65.07,78,44,10.71,AU,1659565467
ambanja,48.45,-13.6833,67.41,85,46,3.38,MG,1659565467
pacific grove,-121.9166,36.6177,88.25,78,40,10.36,US,1659565467
pala,14.9046,9.3642,72.55,85,77,3.83,TD,1659565468
si satchanalai,99.7598,17.5169,75.04,98,92,2.86,TH,1659565468
qurayyat,37.3428,31.3318,84.38,48,0,16.11,SA,1659565468
gawler,138.7333,-34.6,56.16,76,11,13.71,AU,1659565469
calvia,2.5062,39.5657,81.09,46,0,3.85,ES,1659565469
kang,22.7876,-23.6752,53.96,22,0,7.02,BW,1659565469
bulgan,103.5347,48.8125,56.5,92,100,0.92,MN,1659565470
samusu,,,,,,,,
kingman,-114.053,35.1894,101.19,23,0,10.36,US,1659565396
olafsvik,-23.7142,64.8945,48.83,68,20,10.49,IS,1659565470
vilhena,-60.1458,-12.7406,86.22,30,0,4.61,BR,1659565470
saint-prosper,-70.4811,46.2117,72.03,50,71,6.29,CA,1659565471
tabriz,46.2919,38.08,76.46,47,20,4.61,IR,1659565436
alexandria,29.9553,31.2156,79.2,67,0,10.04,EG,1659565370
sutysky,28.4173,49.0425,63.37,88,63,8.05,UA,1659565471
banepa,85.5214,27.6298,70.12,94,75,3.44,NP,1659565472
la ronge,-105.2842,55.1001,68.22,45,75,6.91,CA,1659565472
manzhouli,117.4333,49.6,68.36,78,78,7.11,CN,1659565472
petropavlovsk-kamchatskiy,158.6483,53.0452,59.59,72,75,8.95,RU,1659565472
mitsamiouli,43.2844,-11.3847,75.11,72,0,5.23,KM,1659565473
kyzyl-suu,78.0056,42.3414,59.45,58,28,3.56,KG,1659565473
nelson bay,152.15,-32.7167,64.99,81,97,13,AU,1659565473
zaigrayevo,108.2703,51.8336,57.36,93,57,4,RU,1659565474
odweyne,45.064,9.4092,76.41,43,76,16.89,SO,1659565474
maragogi,-35.2225,-9.0122,75.27,88,100,15.5,BR,1659565474
alotau,,,,,,,,
envira,-70.2167,-7.3,81.61,68,90,1.41,BR,1659565475
renfrew,-4.3925,55.872,57.47,85,87,4.61,GB,1659565475
dongsheng,109.9776,39.8161,74.08,64,61,12.12,CN,1659565476
samarai,150.6667,-10.6167,80.64,83,80,15.01,PG,1659565476
nakajo,,,,,,,,
les cayes,-73.75,18.2,82.76,70,100,9.37,HT,1659565476
wulanhaote,,,,,,,,
vigrestad,5.7,58.5667,60.48,90,7,9.44,NO,1659565477
lushunkou,,,,,,,,
tver,35.8931,56.8619,65.08,87,100,5.21,RU,1659565477
kandrian,149.55,-6.2167,79.05,86,100,10.07,PG,1659565478
vanavara,102.2797,60.34,52.43,94,100,3.91,RU,1659565478
halalo,,,,,,,,
mecca,39.8261,21.4267,87.3,54,100,5.64,SA,1659565309
tadine,167.8833,-21.55,75.18,81,1,9.64,NC,1659565478
jackson,-122.8345,42.4165,102.74,24,0,5.99,US,1659565479
jiaozhou,120.0033,36.2839,80.56,95,4,5.1,CN,1659565479
luanda,13.2343,-8.8368,66.33,86,3,11.03,AO,1659565479
ojinaga,-104.4167,29.5667,106.41,22,40,0,MX,1659565480
koslan,48.8989,63.4564,58.59,92,68,4.74,RU,1659565480
pringsewu,104.9744,-5.3582,73.35,97,97,3.96,ID,1659565480
botwood,-55.3482,49.1499,72.9,89,48,2.98,CA,1659565480
zhigansk,123.3711,66.7697,43.99,71,100,20.62,RU,1659565481
olga,135.2892,43.7444,70.95,97,75,1.05,RU,1659565481
bati,40.0167,11.1833,66.87,71,97,6.08,ET,1659565481
eureka,-124.1637,40.8021,89.67,81,43,10,US,1659565250
labuhan,112.2051,-6.8844,75.56,85,92,8.66,ID,1659565482
ikorodu,3.5041,6.6191,76.96,78,87,10.78,NG,1659565482
sabzevar,57.6819,36.2126,81.68,26,0,11.5,IR,1659565482
halifax,-63.5724,44.6453,80.49,79,20,5.75,CA,1659565266
archidona,-4.3887,37.0965,73.9,41,0,4.47,ES,1659565483
guben,14.7145,51.9499,75.31,51,89,4.47,DE,1659565483
san carlos,-68.5827,9.6612,78.08,93,98,0.6,VE,1659565188
arona,-16.681,28.0996,84.9,46,0,18.41,ES,1659565483
severnyy,36.5532,50.677,64.44,94,0,6.71,RU,1659565484
japura,102.35,-0.3167,72.34,99,98,2.51,ID,1659565484
deputatskiy,139.9,69.3,40.66,90,100,4.5,RU,1659565484
sayyan,44.3244,15.1718,64.26,62,85,1.83,YE,1659565485
evensk,159.2333,61.95,52.63,97,100,7.61,RU,1659565485
bilma,12.9164,18.6853,87.91,44,31,5.91,NE,1659565485
lardos,28.0157,36.0942,78.62,72,0,9.4,GR,1659565486
port augusta,137.7667,-32.5,52.05,61,17,10.58,AU,1659565486
soyo,12.3689,-6.1349,68.68,85,0,9.89,AO,1659565486
goedereede,3.9806,51.8175,74.05,80,68,6.33,NL,1659565487
tessalit,1.0114,20.1986,96.03,25,91,7.05,ML,1659565487
igunga,33.8833,-4.2833,69.51,44,47,4.74,TZ,1659565487
fairbanks,-147.7164,64.8378,73.36,56,40,6.91,US,1659565487
sassenberg,8.05,52,74.84,52,17,4.61,DE,1659565488
dvorichna,37.6857,49.8496,65.71,94,100,6.62,UA,1659565488
leningradskiy,178.4167,69.3833,42.87,89,100,3.13,RU,1659565488
alugan,125.4808,12.2188,79.77,84,100,8.59,PH,1659565489
tarudant,,,,,,,,
oranjemund,16.4333,-28.55,53.2,96,10,5.84,NA,1659565463
talnakh,88.3972,69.4865,51.21,60,11,5.35,RU,1659565489
mogadishu,45.3438,2.0371,75.83,82,19,17.36,SO,1659565489
cobija,-68.7692,-11.0267,85.78,50,83,3.58,BO,1659565490
maldonado,-54.9167,-34.6667,52.99,94,100,4.56,UY,1659565226
izumo,132.7667,35.3667,82.35,78,75,12.66,JP,1659565490
two hills,-111.7518,53.7169,68.23,82,100,6.91,CA,1659565490
bata,9.7658,1.8639,75.4,82,43,5.86,GQ,1659565491
