city,lon,lat,Max Temp,Humidity,Cloudiness,Wind Speed,Country,Date
cayenne,-52.3333,4.9333,80.1,1.0,0.0,2.3,GF,1659586822.0
provideniya,-173.3,64.3833,42.91,100.0,75.0,6.71,RU,1659586822.0
atuona,-139.0333,-9.8,77.58,81.0,36.0,19.84,PF,1659586523.0
bluff,168.3333,-46.6,57.79,71.0,22.0,14.63,NZ,1659586822.0
butaritari,172.7902,3.0707,82.22,73.0,22.0,14.99,KI,1659586823.0
igdir,44.045,39.9237,81.59,41.0,20.0,8.05,TR,1659586823.0
zernograd,40.3083,46.8452,72.77,74.0,51.0,5.03,RU,1659586824.0
mataura,168.8643,-46.1927,57.47,68.0,28.0,7.56,NZ,1659586824.0
loei,101.5,17.4167,78.17,65.0,100.0,4.09,TH,1659586824.0
mar del plata,-57.5575,-38.0023,46.42,84.0,100.0,8.05,AR,1659586824.0
sisimiut,-53.6735,66.9395,46.31,88.0,100.0,4.36,GL,1659586825.0
kapaa,-159.319,22.0752,82.38,70.0,20.0,11.5,US,1659586825.0
college,-147.8028,64.8569,74.07,43.0,75.0,6.91,US,1659586825.0
saskylakh,114.0833,71.9167,56.98,50.0,24.0,13.78,RU,1659586826.0
pandan,124.1694,14.0453,79.23,89.0,100.0,5.57,PH,1659586826.0
rikitea,-134.9692,-23.1203,71.38,72.0,97.0,20.36,PF,1659586826.0
castro,-50.0119,-24.7911,57.74,69.0,30.0,4.34,BR,1659586827.0
filingue,3.3168,14.3521,78.75,68.0,98.0,16.75,NE,1659586827.0
villa rica,-84.9191,33.7321,74.71,98.0,12.0,6.11,US,1659586691.0
codrington,141.9667,-38.2667,60.49,60.0,1.0,20.02,AU,1659586551.0
le mars,-96.1656,42.7942,74.71,88.0,0.0,6.91,US,1659586827.0
mount isa,139.5,-20.7333,91.17,27.0,40.0,18.41,AU,1659586828.0
pimampiro,-77.9667,0.4,56.61,86.0,92.0,5.37,EC,1659586828.0
punta arenas,-70.9167,-53.15,37.51,93.0,100.0,12.66,CL,1659586828.0
ponta do sol,-17.1,32.6667,72.01,68.0,8.0,7.11,PT,1659586829.0
east london,27.9116,-33.0153,59.94,88.0,0.0,9.22,ZA,1659586829.0
salalah,54.0924,17.0151,78.89,94.0,100.0,2.3,OM,1659586829.0
esperance,121.9,-33.8667,51.64,68.0,97.0,31.7,AU,1659586830.0
tuktoyaktuk,-133.0374,69.4541,53.6,76.0,20.0,2.3,CA,1659586830.0
nuuk,-51.7216,64.1835,45.1,89.0,100.0,30.67,GL,1659586830.0
kavieng,150.7967,-2.5744,83.73,74.0,99.0,14.56,PG,1659586587.0
vaini,-175.2,-21.2,78.96,89.0,75.0,8.05,TO,1659586831.0
yaan,8.5667,7.3833,71.29,94.0,95.0,6.67,NG,1659586831.0
mattawa,-119.9028,46.7379,80.02,32.0,0.0,15.57,US,1659586831.0
biarritz,-1.5556,43.4801,74.64,83.0,100.0,9.22,FR,1659586832.0
port alfred,26.891,-33.5906,57.18,91.0,26.0,4.0,ZA,1659586832.0
riyadh,46.7219,24.6877,95.14,30.0,8.0,5.44,SA,1659586832.0
airai,125.4092,-8.9266,77.07,36.0,63.0,3.24,TL,1659586833.0
karratha,116.8463,-20.7377,74.48,33.0,1.0,9.8,AU,1659586833.0
georgetown,100.3354,5.4112,85.89,74.0,40.0,8.05,MY,1659586613.0
erdenet,104.0833,49.0333,67.19,64.0,15.0,1.41,MN,1659586833.0
solnechnyy,136.6319,50.7214,71.51,66.0,97.0,6.15,RU,1659586834.0
mazara del vallo,12.588,37.6641,78.93,76.0,0.0,2.1,IT,1659586834.0
nishihara,127.7558,26.1842,88.88,77.0,75.0,12.66,JP,1659586835.0
kintampo,-1.7306,8.0563,68.85,91.0,75.0,6.02,GH,1659586835.0
kodiak,-152.4072,57.79,65.71,52.0,75.0,6.91,US,1659586835.0
jamestown,-79.2353,42.097,76.64,45.0,75.0,14.97,US,1659586639.0
nanortalik,-45.2371,60.1432,47.84,95.0,100.0,17.98,GL,1659586836.0
albany,-73.9662,42.6001,72.66,72.0,1.0,3.49,US,1659586836.0
la union,-80.75,-5.4,65.19,76.0,76.0,13.42,PE,1659586836.0
cidreira,-50.2056,-30.1811,61.88,95.0,100.0,7.34,BR,1659586837.0
leshukonskoye,45.7622,64.8989,61.48,62.0,45.0,5.41,RU,1659586837.0
bajram curri,20.0784,42.3554,66.13,63.0,1.0,3.8,AL,1659586837.0
pevek,170.3133,69.7008,35.26,95.0,100.0,11.1,RU,1659586838.0
villazon,-65.5942,-22.0866,35.67,11.0,0.0,2.77,BO,1659586838.0
port elizabeth,25.5701,-33.918,55.69,94.0,0.0,11.5,ZA,1659586838.0
ugoofaaru,73.0,5.6667,80.71,82.0,100.0,22.15,MV,1659586839.0
hermanus,19.2345,-34.4187,44.8,82.0,89.0,8.75,ZA,1659586839.0
san jeronimo,-75.2829,-11.9472,48.58,81.0,9.0,1.59,PE,1659586839.0
bredasdorp,20.0403,-34.5322,46.67,89.0,59.0,7.27,ZA,1659586839.0
hilo,-155.09,19.7297,76.28,88.0,100.0,1.01,US,1659586671.0
sorong,131.25,-0.8833,84.06,70.0,100.0,6.71,ID,1659586840.0
chaklasi,72.9333,22.65,84.16,62.0,84.0,4.47,IN,1659586840.0
capoterra,8.9718,39.1763,75.52,61.0,0.0,2.3,IT,1659586841.0
evensk,159.2333,61.95,53.26,96.0,100.0,9.66,RU,1659586841.0
cape town,18.4232,-33.9258,54.91,80.0,40.0,10.36,ZA,1659586781.0
bardiyah,25.0865,31.7561,76.44,71.0,0.0,9.75,LY,1659586841.0
iqaluit,-68.5145,63.7506,42.53,81.0,40.0,0.0,CA,1659586842.0
konstantinovka,127.9833,49.6167,89.67,42.0,64.0,5.55,RU,1659586842.0
busselton,115.3333,-33.65,54.63,67.0,97.0,13.8,AU,1659586842.0
sibolga,98.7792,1.7427,78.03,76.0,100.0,1.79,ID,1659586842.0
molochnoye,39.6787,59.2917,62.98,78.0,10.0,3.15,RU,1659586817.0
ekhabi,142.9671,53.5102,61.86,85.0,99.0,12.17,RU,1659586843.0
mana,-53.7767,5.6592,76.64,90.0,56.0,7.52,GF,1659586843.0
yellowknife,-114.3525,62.456,59.56,44.0,20.0,6.91,CA,1659586844.0
sangar,127.4739,63.9242,71.22,65.0,53.0,4.41,RU,1659586844.0
la ronge,-105.2842,55.1001,59.25,82.0,75.0,0.0,CA,1659586844.0
adilabad,78.5333,19.6667,84.76,72.0,100.0,1.81,IN,1659586845.0
tasiilaq,-37.6368,65.6145,39.4,70.0,100.0,3.0,GL,1659586845.0
rongcheng,117.8517,30.634,97.81,50.0,1.0,3.83,CN,1659586845.0
baykit,96.37,61.67,50.59,83.0,100.0,5.3,RU,1659586846.0
daloa,-6.4502,6.8774,70.11,91.0,100.0,4.27,CI,1659586846.0
lazaro cardenas,-102.2,17.9583,81.5,81.0,70.0,0.89,MX,1659586846.0
vestmanna,-7.1664,62.1564,45.52,87.0,75.0,9.22,FO,1659586846.0
ushuaia,-68.3,-54.8,38.86,75.0,100.0,5.75,AR,1659586759.0
avarua,-159.775,-21.2078,75.25,60.0,40.0,11.5,CK,1659586847.0
san quintin,-115.95,30.4833,69.69,86.0,57.0,12.91,MX,1659586847.0
mamallapuram,80.1722,12.6264,86.05,71.0,100.0,6.71,IN,1659586848.0
cabedelo,-34.8339,-6.9811,72.27,84.0,42.0,7.43,BR,1659586848.0
coquimbo,-71.3436,-29.9533,47.93,93.0,0.0,8.05,CL,1659586848.0
nago,127.9761,26.5881,88.65,67.0,74.0,4.09,JP,1659586849.0
puerto ayora,-90.3518,-0.7393,70.56,80.0,94.0,8.01,EC,1659586849.0
carnarvon,113.6333,-24.8667,67.42,52.0,77.0,15.66,AU,1659586849.0
kulhudhuffushi,73.07,6.6221,79.95,81.0,100.0,22.84,MV,1659586849.0
qaanaaq,-69.3632,77.484,40.19,65.0,11.0,5.99,GL,1659586850.0
kahului,-156.47,20.8947,82.42,69.0,40.0,18.41,US,1659586850.0
cabo san lucas,-109.9124,22.8909,87.51,62.0,5.0,5.99,MX,1659586618.0
tiksi,128.8694,71.6872,44.11,76.0,90.0,3.33,RU,1659586851.0
san fernando,120.6898,15.0286,92.93,63.0,100.0,3.85,PH,1659586851.0
new norfolk,147.0587,-42.7826,62.92,66.0,6.0,3.0,AU,1659586851.0
abeokuta,3.35,7.15,70.63,92.0,99.0,4.0,NG,1659586561.0
longyearbyen,15.6401,78.2186,48.04,87.0,75.0,4.61,SJ,1659586852.0
newala,39.2787,-10.9431,57.42,96.0,24.0,1.45,TZ,1659586852.0
potam,-110.3833,27.6,88.21,55.0,53.0,5.17,MX,1659586852.0
hobart,147.3294,-42.8794,63.27,52.0,40.0,8.05,AU,1659586853.0
pisco,-76.2167,-13.7,57.02,88.0,100.0,4.61,PE,1659586853.0
mantua,10.7833,45.1667,78.04,83.0,2.0,1.99,IT,1659586853.0
wawa,4.4192,9.9022,71.94,95.0,100.0,6.44,NG,1659586854.0
shimoda,138.95,34.6667,79.16,86.0,84.0,7.45,JP,1659586854.0
ahar,47.0699,38.4774,70.84,65.0,0.0,5.14,IR,1659586854.0
ribeira grande,-28.7,38.5167,75.27,87.0,25.0,4.05,PT,1659586855.0
klaksvik,-6.589,62.2266,47.32,82.0,96.0,11.3,FO,1659586855.0
ahipara,173.1667,-35.1667,59.72,84.0,34.0,3.04,NZ,1659586855.0
guye,118.4167,39.7333,95.36,49.0,51.0,9.13,CN,1659586855.0
falun,15.626,60.6036,59.95,93.0,47.0,9.15,SE,1659586668.0
sayyan,44.3244,15.1718,58.59,70.0,100.0,4.63,YE,1659586856.0
mehran,46.1646,33.1222,105.21,12.0,0.0,4.76,IR,1659586856.0
lompoc,-120.4579,34.6391,68.77,86.0,100.0,8.05,US,1659586857.0
taltal,-70.4833,-25.4,57.38,64.0,4.0,4.47,CL,1659586857.0
anadyr,177.4833,64.75,59.5,67.0,0.0,11.18,RU,1659586857.0
tuatapere,167.6833,-46.1333,49.66,82.0,55.0,9.13,NZ,1659586857.0
vao,167.4833,-22.6667,71.69,82.0,49.0,13.94,NC,1659586858.0
copiapo,-70.3333,-27.3667,49.69,69.0,30.0,2.73,CL,1659586705.0
port-cartier,-66.8654,50.0334,60.48,66.0,100.0,3.4,CA,1659586858.0
lebu,-73.65,-37.6167,48.63,90.0,93.0,9.78,CL,1659586859.0
djibo,-1.6306,14.1022,82.38,64.0,25.0,13.33,BF,1659586859.0
victoria,114.1577,22.2855,81.32,93.0,100.0,8.99,HK,1659586745.0
raga,25.678,8.4596,67.55,99.0,92.0,3.44,SS,1659586859.0
ciudad bolivar,-63.5497,8.1222,75.6,92.0,100.0,8.14,VE,1659586860.0
itoman,127.6694,26.1247,89.62,76.0,75.0,12.66,JP,1659586860.0
sol-iletsk,54.9918,51.1631,70.3,54.0,94.0,12.06,RU,1659586860.0
atar,-13.0499,20.5169,83.48,50.0,29.0,12.06,MR,1659586567.0
mitsamiouli,43.2844,-11.3847,68.29,88.0,20.0,3.44,KM,1659586861.0
poum,164.0167,-20.2333,75.43,82.0,32.0,5.99,NC,1659586861.0
binzhou,118.0167,37.3667,95.32,53.0,0.0,4.99,CN,1659586861.0
stornoway,-6.3865,58.2093,48.16,92.0,20.0,3.44,GB,1659586862.0
torbay,-52.7314,47.6666,68.58,90.0,75.0,16.11,CA,1659586862.0
murmashi,32.8115,68.8154,59.41,87.0,40.0,7.0,RU,1659586862.0
chuy,-53.4616,-33.6971,56.19,99.0,100.0,8.61,UY,1659586863.0
ulaanbaatar,106.8832,47.9077,66.33,63.0,40.0,11.18,MN,1659586620.0
saint-philippe,55.7679,-21.3585,67.59,83.0,56.0,9.57,RE,1659586863.0
ancud,-73.8203,-41.8697,41.23,72.0,100.0,6.55,CL,1659586863.0
saldanha,17.9442,-33.0117,48.25,71.0,98.0,7.81,ZA,1659586864.0
cherskiy,161.3,68.75,44.31,86.0,100.0,9.64,RU,1659586864.0
chanute,-95.4572,37.6792,91.51,46.0,0.0,8.05,US,1659586804.0
tautira,-149.15,-17.7333,76.37,81.0,36.0,26.93,PF,1659586864.0
kalabo,22.6814,-14.97,54.95,49.0,3.0,5.88,ZM,1659586865.0
tiznit,-9.5,29.5833,81.61,32.0,95.0,2.51,MA,1659586865.0
saint-pierre,55.4781,-21.3393,70.92,77.0,20.0,8.05,RE,1659586865.0
jieshi,115.8257,22.8134,80.65,89.0,100.0,18.41,CN,1659586866.0
takoradi,-1.7554,4.8845,72.77,77.0,65.0,8.41,GH,1659586866.0
duxbury,-70.6723,42.0418,75.2,92.0,0.0,5.75,US,1659586850.0
port hardy,-127.4199,50.6996,57.38,88.0,100.0,2.3,CA,1659586582.0
hithadhoo,73.0833,-0.6,81.57,69.0,99.0,14.41,MV,1659586866.0
souillac,57.5167,-20.5167,70.18,73.0,40.0,10.36,MU,1659586867.0
port blair,92.75,11.6667,84.24,79.0,75.0,11.5,IN,1659586867.0
sambava,50.1667,-14.2667,68.2,79.0,17.0,8.48,MG,1659586867.0
san isidro,-77.05,-12.1167,61.02,85.0,100.0,12.66,PE,1659586868.0
zhirnovsk,44.7735,50.9845,72.57,61.0,100.0,8.19,RU,1659586868.0
iquique,-70.1431,-20.2208,57.24,79.0,17.0,4.85,CL,1659586868.0
esmeraldas,-44.3139,-19.7625,63.46,61.0,0.0,3.71,BR,1659586869.0
ust-ilimsk,102.6619,58.0006,60.85,61.0,100.0,8.12,RU,1659586869.0
paragominas,-47.4833,-2.9667,70.7,94.0,67.0,3.47,BR,1659586869.0
barrow,-156.7887,71.2906,46.42,87.0,100.0,16.11,US,1659586870.0
upernavik,-56.1549,72.7868,41.0,82.0,30.0,9.64,GL,1659586870.0
chimore,-65.1333,-16.9833,70.68,91.0,21.0,1.57,BO,1659586870.0
sur,59.5289,22.5667,87.98,65.0,24.0,2.06,OM,1659586871.0
kruisfontein,24.7314,-34.0033,55.65,90.0,94.0,6.69,ZA,1659586871.0
aksarka,67.7975,66.5606,70.77,44.0,89.0,10.67,RU,1659586871.0
fairbanks,-147.7164,64.8378,74.08,43.0,0.0,6.91,US,1659586851.0
puerto leguizamo,-74.7819,-0.1934,72.23,96.0,69.0,1.7,CO,1659586872.0
lavrentiya,-171.0,65.5833,49.44,80.0,57.0,5.68,RU,1659586872.0
bekovo,43.712,52.4663,70.0,67.0,94.0,8.19,RU,1659586872.0
polson,-114.1632,47.6936,77.22,34.0,1.0,5.91,US,1659586873.0
saint george,-113.5841,37.1041,93.79,29.0,0.0,9.22,US,1659586654.0
sretensk,117.7093,52.2453,64.22,99.0,100.0,3.09,RU,1659586873.0
izmalkovo,37.964,52.6887,64.13,81.0,99.0,7.18,RU,1659586873.0
maceio,-35.7353,-9.6658,72.84,94.0,100.0,3.44,BR,1659586862.0
le pont-de-claix,5.7064,45.1244,73.99,62.0,8.0,4.54,FR,1659586874.0
caravelas,-39.2481,-17.7125,67.89,76.0,47.0,4.63,BR,1659586874.0
svetlogorsk,29.7333,52.6333,63.12,94.0,37.0,5.84,BY,1659586874.0
edson,-116.4356,53.5835,55.54,94.0,100.0,6.91,CA,1659586875.0
ballater,-3.0402,57.0493,51.82,94.0,94.0,1.52,GB,1659586875.0
bethel,-73.414,41.3712,74.75,87.0,0.0,1.01,US,1659586875.0
pangnirtung,-65.7125,66.1451,48.06,75.0,100.0,0.69,CA,1659586876.0
samaniego,-77.5957,1.3385,61.18,94.0,100.0,3.22,CO,1659586876.0
kotido,34.1331,2.9806,65.21,83.0,54.0,4.76,UG,1659586876.0
dawei,98.2,14.0833,79.07,89.0,100.0,4.27,MM,1659586877.0
san jose,-121.895,37.3394,78.58,64.0,20.0,6.91,US,1659586858.0
sitka,-135.33,57.0531,60.69,77.0,100.0,11.5,US,1659586877.0
thung song,99.6804,8.1645,88.43,81.0,100.0,3.69,TH,1659586877.0
ondjiva,15.7333,-17.0667,51.6,15.0,0.0,4.21,AO,1659586878.0
carballo,-8.691,43.213,65.62,92.0,99.0,6.13,ES,1659586878.0
malyye derbety,44.6808,47.9547,83.26,30.0,79.0,9.08,RU,1659586878.0
norman wells,-126.8329,65.282,60.84,77.0,75.0,5.75,CA,1659586879.0
vilhena,-60.1458,-12.7406,70.43,46.0,0.0,4.23,BR,1659586879.0
shingu,135.9833,33.7333,94.21,49.0,51.0,3.62,JP,1659586879.0
ust-kan,84.761,50.9276,58.93,84.0,91.0,3.33,RU,1659586880.0
fortuna,-124.1573,40.5982,60.66,84.0,11.0,1.99,US,1659586880.0
belaya gora,146.4167,68.5333,51.37,65.0,100.0,10.33,RU,1659586880.0
cumaral,-73.4867,4.2708,68.81,86.0,78.0,3.85,CO,1659586881.0
thompson,-97.8558,55.7435,50.16,81.0,40.0,2.3,CA,1659586881.0
nikolskoye,30.7861,59.7035,66.09,82.0,13.0,5.59,RU,1659586881.0
dong xoai,106.9167,11.5333,84.25,74.0,97.0,5.75,VN,1659586882.0
kuah,99.8432,6.3265,84.18,84.0,20.0,2.3,MY,1659586882.0
tadpatri,78.0167,14.9167,83.52,67.0,100.0,4.88,IN,1659586882.0
floro,5.0328,61.5996,56.23,100.0,75.0,0.0,NO,1659586883.0
bathsheba,-59.5167,13.2167,82.06,89.0,40.0,18.41,BB,1659586883.0
faanui,-151.75,-16.4833,78.58,75.0,17.0,24.79,PF,1659586883.0
katsuura,140.3,35.1333,75.22,78.0,100.0,13.18,JP,1659586883.0
mount gambier,140.7667,-37.8333,60.71,59.0,40.0,19.57,AU,1659586884.0
grand gaube,57.6608,-20.0064,70.2,73.0,98.0,1.99,MU,1659586884.0
hovd,91.6419,48.0056,72.82,32.0,100.0,3.15,MN,1659586884.0
porto murtinho,-57.8825,-21.6989,76.46,30.0,92.0,5.01,BR,1659586885.0
manakara,48.0167,-22.1333,66.92,84.0,100.0,4.18,MG,1659586885.0
sukhobuzimskoye,93.2728,56.5,56.44,78.0,98.0,11.07,RU,1659586885.0
byron bay,153.6167,-28.65,76.95,67.0,22.0,17.52,AU,1659586833.0
yulara,130.9889,-25.2406,72.16,27.0,0.0,20.98,AU,1659586886.0
tessalit,1.0114,20.1986,84.36,42.0,6.0,9.82,ML,1659586886.0
jizan,42.6667,17.3333,86.94,63.0,99.0,11.41,SA,1659586886.0
maniitsoq,-52.9,65.4167,44.29,95.0,100.0,18.99,GL,1659586887.0
severo-kurilsk,156.125,50.6789,56.44,82.0,82.0,7.81,RU,1659586887.0
akyab,92.9,20.15,85.75,74.0,71.0,13.65,MM,1659586887.0
coihaique,-72.0662,-45.5752,39.15,75.0,100.0,4.61,CL,1659586888.0
narasannapeta,84.05,18.4167,80.69,78.0,100.0,7.94,IN,1659586888.0
borba,-59.5939,-4.3878,76.82,77.0,85.0,2.59,BR,1659586888.0
bayeux,-34.9322,-7.125,72.23,100.0,20.0,4.61,BR,1659586889.0
lasa,10.7002,46.6166,65.28,91.0,20.0,1.68,IT,1659586889.0
bubaque,-15.8333,11.2833,77.9,84.0,100.0,7.58,GW,1659586889.0
vila velha,-40.2925,-20.3297,69.94,93.0,17.0,0.0,BR,1659586879.0
hutchinson,-97.9298,38.0608,84.72,65.0,100.0,10.36,US,1659586649.0
ramhormoz,49.6035,31.28,105.71,21.0,0.0,1.34,IR,1659586890.0
rio muerto,-110.2333,27.4167,87.58,54.0,31.0,5.59,MX,1659586890.0
hualmay,-77.6139,-11.0964,60.94,85.0,49.0,9.98,PE,1659586891.0
kaitangata,169.8464,-46.2817,54.34,67.0,33.0,3.2,NZ,1659586891.0
sterling,-77.4286,39.0062,79.59,83.0,0.0,5.75,US,1659586891.0
adrar,-10.0711,20.5022,90.5,33.0,3.0,14.9,MR,1659586892.0
shar,81.0453,49.5886,72.59,32.0,95.0,14.63,KZ,1659586892.0
xuddur,43.8894,4.1213,69.85,79.0,100.0,17.9,SO,1659586892.0
poronaysk,143.1167,49.2167,57.87,97.0,100.0,10.98,RU,1659586893.0
scarborough,-0.4044,54.2797,58.33,88.0,100.0,1.99,GB,1659586618.0
komsomolskiy,71.7189,40.4272,85.03,29.0,9.0,4.74,UZ,1659586893.0
narsaq,-46.05,60.9167,50.22,99.0,100.0,5.61,GL,1659586893.0
mancio lima,-72.8958,-7.6142,75.27,94.0,0.0,0.0,BR,1659586894.0
chyhyryn,32.6555,49.0838,65.88,92.0,79.0,9.71,UA,1659586894.0
vanimo,141.3028,-2.6741,83.48,72.0,100.0,7.99,PG,1659586894.0
homer,-151.5483,59.6425,64.78,75.0,0.0,11.5,US,1659586895.0
hamilton,-84.5333,39.1834,80.83,84.0,0.0,6.91,US,1659586773.0
sobolevo,31.8996,54.4299,64.8,91.0,75.0,4.38,RU,1659586895.0
olinda,-34.8553,-8.0089,74.93,83.0,75.0,8.05,BR,1659586883.0
keti bandar,67.4497,24.1447,83.59,76.0,100.0,8.48,PK,1659586896.0
bengkulu,102.2655,-3.8004,80.37,81.0,73.0,4.25,ID,1659586896.0
haines junction,-137.5108,60.7522,64.35,52.0,58.0,5.75,CA,1659586897.0
ozu,132.55,33.5,90.18,65.0,34.0,6.49,JP,1659586897.0
aykhal,111.5,66.0,39.2,97.0,100.0,23.2,RU,1659586897.0
husavik,-17.3389,66.0449,42.57,93.0,100.0,15.32,IS,1659586897.0
praia da vitoria,-27.0667,38.7333,73.76,94.0,20.0,2.1,PT,1659586898.0
gasa,34.4667,31.5,74.88,78.0,7.0,1.03,PS,1659586898.0
dikson,80.5464,73.5069,44.89,98.0,96.0,8.7,RU,1659586899.0
sinnamary,-52.95,5.3833,77.05,88.0,42.0,8.32,GF,1659586899.0
kolosovka,73.611,56.4678,67.26,62.0,8.0,7.14,RU,1659586899.0
deputatskiy,139.9,69.3,46.44,60.0,98.0,3.83,RU,1659586899.0
saint-denis,2.3333,48.9167,73.89,70.0,75.0,8.05,FR,1659586900.0
sault sainte marie,-84.3333,46.5168,66.76,90.0,20.0,8.05,CA,1659586646.0
huilong,121.655,31.8111,94.93,65.0,4.0,16.46,CN,1659586900.0
steamboat springs,-106.8317,40.485,67.5,61.0,0.0,3.44,US,1659586656.0
fukue,128.8419,32.6881,86.36,79.0,40.0,4.61,JP,1659586901.0
erenhot,111.9767,43.6475,83.1,44.0,95.0,12.03,CN,1659586901.0
podosinovets,47.0659,60.2776,65.25,81.0,100.0,1.99,RU,1659586812.0
havoysund,24.6622,70.9963,59.23,82.0,97.0,11.92,NO,1659586901.0
guarapari,-40.4975,-20.6667,69.89,94.0,12.0,3.49,BR,1659586902.0
whitianga,175.7,-36.8333,60.24,73.0,1.0,2.93,NZ,1659586902.0
broken hill,141.4333,-31.95,70.65,29.0,9.0,29.95,AU,1659586902.0
sao miguel do araguaia,-50.1628,-13.275,72.72,35.0,0.0,4.61,BR,1659586903.0
buchanan,-10.0467,5.8808,74.77,88.0,94.0,7.29,LR,1659586903.0
iskateley,53.1512,67.6803,60.15,73.0,66.0,16.17,RU,1659586607.0
rocha,-54.3333,-34.4833,51.21,98.0,100.0,7.38,UY,1659586903.0
lorengau,147.2712,-2.0226,83.52,73.0,100.0,12.95,PG,1659586904.0
birobidzhan,132.95,48.8,80.82,69.0,81.0,4.14,RU,1659586904.0
geraldton,114.6,-28.7667,64.81,68.0,75.0,17.27,AU,1659586904.0
faya,42.4509,18.3851,63.12,64.0,100.0,3.29,SA,1659586905.0
tsiroanomandidy,46.0333,-18.7667,57.92,82.0,3.0,2.37,MG,1659586905.0
portoferraio,10.3146,42.8115,77.09,69.0,0.0,4.34,IT,1659586905.0
the valley,-63.0578,18.217,82.26,78.0,83.0,22.35,AI,1659586906.0
inirida,-67.9239,3.8653,72.27,98.0,100.0,2.68,CO,1659586906.0
pacific grove,-121.9166,36.6177,65.21,91.0,40.0,5.75,US,1659586906.0
bam,58.357,29.106,89.04,15.0,2.0,10.31,IR,1659586906.0
hauterive,3.4459,46.0901,74.16,46.0,6.0,5.26,FR,1659586907.0
dubbo,148.6167,-32.25,59.13,94.0,100.0,18.41,AU,1659586907.0
margate,1.3862,51.3813,65.3,92.0,10.0,11.25,GB,1659586907.0
lata,-8.3327,40.1629,61.16,94.0,86.0,1.03,PT,1659586908.0
puerto escondido,-97.0667,15.85,83.23,61.0,75.0,3.44,MX,1659586908.0
aswan,32.907,24.0934,87.1,25.0,0.0,6.91,EG,1659586908.0
ilulissat,-51.1,69.2167,55.42,58.0,100.0,13.8,GL,1659586909.0
qasigiannguit,-51.1922,68.8193,55.65,83.0,100.0,2.75,GL,1659586909.0
mandalgovi,106.2708,45.7625,73.49,42.0,0.0,15.14,MN,1659586909.0
yuanping,112.7575,38.7153,90.12,45.0,0.0,5.35,CN,1659586910.0
khatanga,102.5,71.9667,61.47,49.0,33.0,14.07,RU,1659586910.0
bereda,-7.5406,43.2686,65.41,100.0,100.0,5.88,ES,1659586910.0
lufkin,-94.7291,31.3382,83.61,76.0,0.0,5.75,US,1659586911.0
lock haven,-77.4469,41.137,74.14,87.0,21.0,3.11,US,1659586906.0
naco,-109.9483,31.3347,71.69,80.0,79.0,9.84,MX,1659586911.0
broome,-75.833,42.2506,71.67,78.0,35.0,3.2,US,1659586911.0
kawalu,108.2082,-7.3817,81.59,70.0,83.0,5.39,ID,1659586912.0
grindavik,-22.4338,63.8424,45.07,81.0,20.0,17.27,IS,1659586912.0
colares,-9.4469,38.7992,68.29,75.0,21.0,28.99,PT,1659586912.0
san cristobal,-72.225,7.7669,69.98,91.0,90.0,2.21,VE,1659586913.0
pilar,-35.9567,-9.5972,71.53,93.0,100.0,6.49,BR,1659586913.0
sorland,12.6934,67.667,55.26,91.0,93.0,20.71,NO,1659586913.0
mogadishu,45.3438,2.0371,76.57,80.0,26.0,15.79,SO,1659586742.0
mahebourg,57.7,-20.4081,70.09,73.0,40.0,10.36,MU,1659586914.0
tagusao,117.8141,9.1924,86.2,65.0,79.0,3.51,PH,1659586914.0
vardo,31.1107,70.3705,57.18,82.0,100.0,11.5,NO,1659586914.0
chapais,-74.8492,49.7834,62.38,95.0,100.0,10.04,CA,1659586666.0
laguna,-121.4238,38.421,91.31,42.0,0.0,10.36,US,1659586832.0
englehart,-79.8664,47.8169,71.62,94.0,100.0,10.36,CA,1659586915.0
trinidad,-64.9,-14.8333,80.91,56.0,89.0,3.62,BO,1659586915.0
balintore,-3.9123,57.7556,54.34,91.0,100.0,5.44,GB,1659586915.0
chokurdakh,147.9167,70.6333,49.1,54.0,100.0,14.25,RU,1659586916.0
zaza del medio,-79.3669,21.9961,72.61,94.0,0.0,4.43,CU,1659586916.0
arys,68.795,42.4252,82.08,33.0,2.0,6.2,KZ,1659586916.0
santa cruz,-63.1667,-17.8,74.66,88.0,75.0,9.22,BO,1659586917.0
idar,7.3,49.7167,67.95,60.0,63.0,1.79,DE,1659586917.0
richards bay,32.0377,-28.783,62.56,80.0,11.0,12.21,ZA,1659586917.0
oksfjord,22.3479,70.2396,60.87,82.0,43.0,5.59,NO,1659586918.0
san francisco,-122.4194,37.7749,73.33,88.0,20.0,9.22,US,1659586732.0
arraial do cabo,-42.0278,-22.9661,68.92,76.0,0.0,8.75,BR,1659586918.0
isangel,169.2667,-19.55,79.99,74.0,21.0,7.02,VU,1659586918.0
warah,67.7978,27.4481,95.2,52.0,8.0,5.75,PK,1659586919.0
pasighat,95.3333,28.0667,84.7,85.0,100.0,2.68,IN,1659586919.0
weligama,80.4167,5.9667,80.31,76.0,100.0,17.38,LK,1659586919.0
brae,-1.353,60.3964,50.54,78.0,99.0,10.54,GB,1659586920.0
samarai,150.6667,-10.6167,81.19,82.0,16.0,12.17,PG,1659586920.0
totness,-56.3167,5.8833,77.34,88.0,97.0,9.66,SR,1659586920.0
guerrero negro,-114.0611,27.9769,71.13,84.0,3.0,16.26,MX,1659586921.0
uyuni,-66.825,-20.4597,35.6,16.0,0.0,9.04,BO,1659586921.0
kamaishi,141.8833,39.2667,70.2,85.0,100.0,5.57,JP,1659586921.0
pouembout,164.9,-21.1333,78.46,73.0,61.0,7.14,NC,1659586922.0
illela,5.2975,13.7292,74.35,85.0,100.0,8.52,NG,1659586922.0
avera,-82.5271,33.194,72.91,90.0,100.0,3.62,US,1659586922.0
bandarbeyla,50.8122,9.4942,78.87,68.0,100.0,27.81,SO,1659586922.0
montevideo,-56.1674,-34.8335,51.51,93.0,100.0,10.36,UY,1659586644.0
te anau,167.7167,-45.4167,44.71,93.0,100.0,7.25,NZ,1659586923.0
sao filipe,-24.4956,14.8961,76.73,86.0,91.0,2.51,CV,1659586923.0
menongue,17.691,-14.6585,59.11,54.0,49.0,4.07,AO,1659586924.0
hvide sande,8.1294,56.0045,62.1,91.0,90.0,11.65,DK,1659586924.0
half moon bay,-122.4286,37.4636,74.28,86.0,100.0,9.22,US,1659586924.0
basco,121.9702,20.4487,85.5,72.0,61.0,11.21,PH,1659586924.0
alofi,-169.9187,-19.0595,78.69,69.0,30.0,16.11,NU,1659586925.0
westport,-73.3579,41.1415,77.09,86.0,0.0,3.44,US,1659586854.0
biak,122.8766,-0.9131,82.36,68.0,20.0,9.15,ID,1659586925.0
wabrzezno,18.9477,53.2799,64.89,70.0,77.0,5.99,PL,1659586926.0
gamba,10.0,-2.65,70.66,83.0,98.0,6.96,GA,1659586926.0
nova borova,28.6345,50.693,62.26,93.0,34.0,7.83,UA,1659586926.0
cortes,-1.4396,41.9395,74.48,66.0,0.0,1.43,ES,1659586927.0
turka,23.0297,49.1541,60.15,82.0,0.0,1.19,UA,1659586927.0
skegness,0.3363,53.1436,59.07,78.0,100.0,10.2,GB,1659586927.0
lagoa,-27.9833,39.05,73.83,88.0,35.0,4.36,PT,1659586928.0
conceicao do araguaia,-49.2647,-8.2578,75.97,43.0,94.0,2.15,BR,1659586928.0
aksu,80.2644,41.1231,80.42,32.0,100.0,2.71,CN,1659586928.0
alta floresta,-56.0861,-9.8756,72.18,47.0,17.0,2.04,BR,1659586714.0
henties bay,14.2845,-22.116,52.92,95.0,90.0,5.19,NA,1659586929.0
belmonte,-38.8828,-15.8631,68.76,76.0,1.0,4.43,BR,1659586929.0
waterloo,-80.5164,43.4668,68.47,99.0,100.0,8.05,CA,1659586834.0
ixtapa,-105.2,20.7,82.22,83.0,100.0,5.75,MX,1659586873.0
timizart,4.2667,36.8,72.39,51.0,4.0,3.94,DZ,1659586930.0
acajutla,-89.8275,13.5928,78.89,81.0,95.0,5.73,SV,1659586930.0
strelka,93.0344,58.0728,53.69,95.0,100.0,5.55,RU,1659586930.0
soubre,-6.6083,5.7856,70.25,92.0,93.0,2.1,CI,1659586931.0
asau,26.4,46.4333,67.28,88.0,8.0,4.14,RO,1659586931.0
porto novo,2.6036,6.4965,73.22,81.0,90.0,5.82,BJ,1659586767.0
vinh,105.6667,18.6667,92.14,56.0,85.0,3.29,VN,1659586917.0
makakilo city,-158.0858,21.3469,82.72,61.0,20.0,12.66,US,1659586932.0
labuhan,112.2051,-6.8844,85.78,64.0,45.0,1.28,ID,1659586932.0
luderitz,15.1594,-26.6481,52.52,92.0,1.0,9.73,NA,1659586932.0
billings,-108.5007,45.7833,80.37,31.0,20.0,4.61,US,1659586680.0
teya,92.6267,60.3778,50.97,97.0,100.0,4.52,RU,1659586933.0
wewak,143.6268,-3.5534,84.22,73.0,94.0,9.22,PG,1659586933.0
kushiro,144.3747,42.975,67.15,77.0,75.0,3.44,JP,1659586933.0
campbell river,-125.2446,50.0163,63.93,94.0,75.0,6.91,CA,1659586864.0
muravlenko,74.523,63.7898,71.38,43.0,78.0,6.93,RU,1659586934.0
kikwit,18.8162,-5.041,71.51,75.0,60.0,1.95,CD,1659586934.0
kondinskoye,67.41,59.6481,70.63,49.0,58.0,4.25,RU,1659586934.0
zarubino,131.0922,42.63,76.23,85.0,72.0,4.63,RU,1659586935.0
healesville,145.5167,-37.65,66.52,44.0,54.0,3.0,AU,1659586935.0
marawi,124.2928,7.9986,82.0,64.0,69.0,2.57,PH,1659586935.0
andenes,16.1194,69.3143,58.93,88.0,75.0,5.75,NO,1659586936.0
bambous virieux,57.7575,-20.3428,70.05,73.0,40.0,10.36,MU,1659586936.0
smidovich,133.8167,48.6,78.13,73.0,98.0,3.58,RU,1659586936.0
carutapera,-46.02,-1.195,75.4,89.0,11.0,6.02,BR,1659586937.0
karanganom,110.625,-7.6489,86.76,47.0,55.0,9.08,ID,1659586937.0
san andres,-81.7006,12.5847,82.42,83.0,100.0,9.22,CO,1659586937.0
cacequi,-54.825,-29.8836,63.16,93.0,100.0,7.56,BR,1659586938.0
clyde river,-68.5914,70.4692,39.43,100.0,100.0,9.22,CA,1659586938.0
aguimes,-15.4461,27.9054,68.67,78.0,20.0,26.46,ES,1659586938.0
bajil,43.2851,15.0584,86.68,59.0,97.0,1.92,YE,1659586939.0
quatre cocos,57.7625,-20.2078,69.91,64.0,92.0,13.51,MU,1659586939.0
pueblo,-104.6091,38.2545,79.56,48.0,0.0,6.91,US,1659586939.0
mitu,-70.1733,1.1983,70.05,95.0,71.0,1.77,CO,1659586939.0
pitimbu,-34.8086,-7.4706,72.19,85.0,70.0,9.86,BR,1659586940.0
guantanamo,-75.2092,20.1444,78.37,87.0,78.0,3.58,CU,1659586940.0
camacha,-16.3333,33.0833,67.42,73.0,75.0,11.5,PT,1659586940.0
aklera,76.5667,24.4167,86.32,67.0,58.0,3.51,IN,1659586941.0
bonaventure,-65.4926,48.0457,59.54,94.0,38.0,4.61,CA,1659586941.0
waingapu,120.2641,-9.6567,85.41,52.0,55.0,12.95,ID,1659586941.0
galveston,-94.9669,29.3669,86.05,81.0,92.0,4.0,US,1659586942.0
helong,128.9972,42.5397,88.11,52.0,13.0,2.57,CN,1659586942.0
gorontalo,123.0595,0.5412,87.46,61.0,21.0,8.81,ID,1659586942.0
puerto asis,-76.5007,0.5133,71.22,93.0,31.0,2.64,CO,1659586943.0
salinopolis,-47.3561,-0.6136,77.99,84.0,10.0,10.02,BR,1659586943.0
batagay-alyta,130.4114,67.8006,44.17,82.0,100.0,2.66,RU,1659586943.0
polunochnoye,60.4153,60.8697,69.48,50.0,42.0,2.84,RU,1659586944.0
mayo,-76.5119,38.8876,81.18,83.0,0.0,1.01,US,1659586944.0
fernley,-119.2518,39.608,81.05,38.0,88.0,5.99,US,1659586944.0
sao gabriel da cachoeira,-67.0892,-0.1303,72.05,99.0,97.0,0.81,BR,1659586945.0
dongying,118.4856,37.4564,97.56,46.0,0.0,6.04,CN,1659586945.0
leningradskiy,178.4167,69.3833,40.5,94.0,100.0,5.21,RU,1659586945.0
linqiong,103.4609,30.4159,82.22,71.0,10.0,3.11,CN,1659586945.0
nizwa,57.5333,22.9333,90.52,48.0,21.0,0.87,OM,1659586946.0
arlit,7.3853,18.7369,90.93,38.0,85.0,10.04,NE,1659586946.0
novikovo,37.8879,51.1537,67.01,87.0,94.0,7.34,RU,1659586947.0
usinsk,57.5281,65.9939,62.89,78.0,73.0,22.12,RU,1659586947.0
conde,-34.9075,-7.2597,71.06,100.0,20.0,4.61,BR,1659586947.0
kieta,155.6333,-6.2167,85.12,66.0,75.0,7.4,PG,1659586948.0
salamanca,-6.0,40.8333,65.75,62.0,0.0,1.32,ES,1659586889.0
vestmannaeyjar,-20.2734,63.4427,47.37,74.0,16.0,17.76,IS,1659586948.0
alugan,125.4808,12.2188,84.29,73.0,100.0,9.31,PH,1659586948.0
strezhevoy,77.5889,60.7333,67.69,43.0,84.0,7.36,RU,1659586949.0
gogrial,28.1004,8.5332,69.55,96.0,88.0,3.83,SS,1659586949.0
dombarovskiy,59.5386,50.7587,70.74,51.0,11.0,15.21,RU,1659586949.0
vila franca do campo,-25.4333,37.7167,73.81,94.0,39.0,5.21,PT,1659586950.0
vigrestad,5.7,58.5667,60.48,89.0,77.0,8.99,NO,1659586950.0
ensley,-87.2728,30.5188,78.69,92.0,0.0,0.0,US,1659586950.0
tonekabon,50.8738,36.8163,82.35,73.0,65.0,5.64,IR,1659586951.0
ojinaga,-104.4167,29.5667,97.75,24.0,0.0,0.0,MX,1659586951.0
ossora,163.0719,59.2353,62.56,67.0,99.0,2.73,RU,1659586951.0
huarmey,-78.1522,-10.0681,62.11,86.0,34.0,10.85,PE,1659586952.0
los llanos de aridane,-17.9182,28.6585,67.75,78.0,75.0,16.11,ES,1659586952.0
goderich,-81.7165,43.7501,70.92,94.0,100.0,12.66,CA,1659586952.0
redcliffe,153.0973,-27.2307,74.14,61.0,20.0,16.11,AU,1659586953.0
cockburn town,-71.1419,21.4612,82.08,75.0,4.0,20.18,TC,1659586953.0
uttarkashi,78.45,30.7333,76.71,85.0,100.0,1.72,IN,1659586953.0
darbhanga,85.9,26.1667,85.42,73.0,100.0,9.33,IN,1659586954.0
komsomolets,62.0708,53.7453,66.6,60.0,100.0,9.98,KZ,1659586954.0
dorado,-66.2677,18.4588,81.97,97.0,92.0,9.64,PR,1659586954.0
kindia,-12.8658,10.0569,69.49,98.0,100.0,1.54,GN,1659586955.0
les cayes,-73.75,18.2,77.14,83.0,94.0,3.91,HT,1659586955.0
never,3.159,46.9896,71.35,59.0,46.0,4.21,FR,1659586955.0
nur,22.3221,52.6683,60.57,74.0,28.0,5.79,PL,1659586956.0
eyl,49.8164,7.9803,77.7,68.0,52.0,23.91,SO,1659586956.0
nosy varika,48.5333,-20.5833,67.95,80.0,96.0,4.38,MG,1659586956.0
kingman,-114.053,35.1894,96.28,38.0,0.0,11.5,US,1659586957.0
najran,44.1277,17.4924,75.85,59.0,97.0,4.88,SA,1659586957.0
eha amufu,7.7596,6.6592,70.25,97.0,100.0,3.62,NG,1659586957.0
rawlins,-107.2387,41.7911,69.69,32.0,0.0,3.44,US,1659586958.0
sisophon,102.9737,13.5859,84.13,72.0,98.0,8.46,KH,1659586958.0
coahuayana,-103.6833,18.7333,78.75,88.0,90.0,2.75,MX,1659586958.0
tura,90.2201,25.5198,81.19,78.0,100.0,1.36,IN,1659586676.0
yigou,114.3167,35.8114,97.34,47.0,0.0,10.98,CN,1659586959.0
pokaran,71.9167,26.9167,88.52,58.0,93.0,9.91,IN,1659586959.0
scottsbluff,-103.6672,41.8666,77.77,49.0,20.0,8.05,US,1659586959.0
kalmunai,81.8167,7.4167,79.92,72.0,100.0,3.65,LK,1659586960.0
victoria point,153.3,-27.5833,74.34,75.0,20.0,7.0,AU,1659586960.0
portland,-122.6762,45.5234,70.56,67.0,20.0,9.22,US,1659586944.0
katangli,143.2326,51.7102,61.77,84.0,98.0,10.83,RU,1659586960.0
fomboni,43.7425,-12.28,76.28,66.0,0.0,13.49,KM,1659586961.0
noshiro,140.0242,40.2039,79.63,70.0,100.0,7.67,JP,1659586961.0
comodoro rivadavia,-67.5,-45.8667,46.26,46.0,0.0,16.11,AR,1659586962.0
boguchany,97.4531,58.3814,57.69,80.0,97.0,9.71,RU,1659586962.0
lumby,-118.969,50.2498,72.19,59.0,98.0,0.0,CA,1659586962.0
port macquarie,152.9167,-31.4333,70.9,63.0,89.0,13.51,AU,1659586962.0
shelburne,-80.2041,44.0787,67.77,98.0,100.0,17.78,CA,1659586963.0
manokwari,134.0833,-0.8667,75.94,93.0,100.0,7.38,ID,1659586963.0
stephanskirchen,12.1528,47.8595,63.43,88.0,3.0,4.03,DE,1659586963.0
methala,76.2166,10.2166,75.2,97.0,100.0,16.49,IN,1659586964.0
kafyr-kumukh,47.1541,42.8375,78.08,60.0,0.0,0.67,RU,1659586964.0
washington,-120.5015,47.5001,69.33,34.0,0.0,5.84,US,1659586909.0
inhambane,35.3833,-23.865,63.3,76.0,0.0,2.13,MZ,1659586964.0
mattru,-11.8332,7.6244,72.16,97.0,95.0,2.08,SL,1659586965.0
do gonbadan,50.7981,30.3586,87.89,70.0,40.0,0.0,IR,1659586965.0
puerto carreno,-67.4859,6.189,75.38,88.0,100.0,3.33,CO,1659586965.0
saint andrews,-81.1293,34.0454,76.32,80.0,75.0,0.0,US,1659586966.0
palaikastron,26.25,35.2,76.32,78.0,0.0,20.31,GR,1659586966.0
kalemie,29.1947,-5.9475,70.41,56.0,53.0,3.24,CD,1659586966.0
sokoto,5.239,13.0609,71.4,91.0,100.0,7.49,NG,1659586967.0
srednekolymsk,153.6833,67.45,53.58,73.0,100.0,7.07,RU,1659586967.0
necochea,-58.7368,-38.5473,44.02,93.0,12.0,3.8,AR,1659586967.0
macau,113.5461,22.2006,80.4,89.0,40.0,8.05,MO,1659586968.0
rindal,9.2124,63.0565,55.74,95.0,93.0,1.92,NO,1659586968.0
tarauaca,-70.7656,-8.1614,76.71,74.0,100.0,2.26,BR,1659586968.0
kuldur,131.6333,49.2167,86.63,39.0,81.0,5.66,RU,1659586969.0
olustvere,25.563,58.5552,58.44,78.0,57.0,5.75,EE,1659586969.0
brentwood,-73.2462,40.7812,77.09,90.0,20.0,6.91,US,1659586843.0
ust-nera,143.2,64.5667,74.97,55.0,81.0,6.44,RU,1659586969.0
kapuskasing,-82.4331,49.4169,59.09,100.0,20.0,6.91,CA,1659586697.0
ambilobe,49.05,-13.2,64.29,75.0,0.0,4.85,MG,1659586970.0
hofn,-15.2082,64.2539,46.98,78.0,100.0,15.32,IS,1659586970.0
atbasar,68.3333,51.8,68.07,50.0,1.0,16.8,KZ,1659586970.0
doha,51.5333,25.2867,97.11,50.0,59.0,5.75,QA,1659586971.0
mtambile,39.7,-5.3833,74.1,74.0,10.0,12.39,TZ,1659586971.0
chitipa,33.2697,-9.7024,53.22,96.0,2.0,4.43,MW,1659586971.0
ostrovnoy,39.5131,68.0531,56.55,80.0,84.0,17.0,RU,1659586972.0
kloulklubed,134.2556,7.0419,86.5,81.0,100.0,9.46,PW,1659586972.0
san patricio,-97.5169,28.017,85.89,76.0,2.0,16.89,US,1659586972.0
rorvik,11.2373,64.8621,57.31,88.0,75.0,10.36,NO,1659586973.0
dondo,34.7431,-19.6094,60.31,95.0,0.0,2.77,MZ,1659586973.0
sainte-marie,55.5496,-20.8968,71.42,77.0,20.0,12.66,RE,1659586973.0
posse,-46.3694,-14.0931,65.62,40.0,0.0,6.42,BR,1659586974.0
liverpool,-2.9779,53.4106,60.75,82.0,75.0,16.11,GB,1659586848.0
wakkanai,141.6739,45.4094,71.58,88.0,75.0,5.75,JP,1659586974.0
poshekhonye,39.1353,58.4993,65.7,80.0,52.0,4.74,RU,1659586812.0
mezhdurechenskiy,65.9333,59.6,69.73,53.0,9.0,3.29,RU,1659586975.0
ayan,138.1667,56.45,57.06,95.0,100.0,12.95,RU,1659586975.0
kismayo,42.5454,-0.3582,75.79,80.0,11.0,15.01,SO,1659586975.0
riberalta,-66.1,-10.9833,77.74,57.0,32.0,1.99,BO,1659586976.0
lethem,-59.7968,3.3803,73.9,91.0,76.0,4.9,GY,1659586976.0
middletown,-84.3983,39.5151,80.73,83.0,40.0,4.61,US,1659586753.0
ustupo,-77.9333,9.1333,76.75,87.0,99.0,2.55,PA,1659586976.0
wasco,-119.341,35.5941,95.54,42.0,0.0,0.0,US,1659586977.0
fairborn,-84.0194,39.8209,79.66,79.0,75.0,4.61,US,1659586977.0
shenzhen,114.0683,22.5455,81.21,94.0,100.0,5.35,CN,1659586977.0
wageningen,5.6667,51.9667,69.12,80.0,100.0,2.3,NL,1659586977.0
dali,100.1833,25.7,73.42,71.0,96.0,2.01,CN,1659586978.0
high rock,-78.2833,26.6208,83.55,69.0,11.0,10.92,BS,1659586978.0
jiaojiang,121.4428,28.6803,95.0,60.0,25.0,12.5,CN,1659586978.0
whitehorse,-135.0538,60.7161,57.97,93.0,75.0,3.44,CA,1659586977.0
rawson,-65.1023,-43.3002,44.35,52.0,37.0,11.79,AR,1659586794.0
antalaha,50.2788,-14.9003,67.51,81.0,23.0,6.58,MG,1659586979.0
abu dhabi,54.3667,24.4667,98.62,56.0,0.0,4.61,AE,1659586812.0
salvador,-88.9167,13.8333,64.8,91.0,99.0,1.5,SV,1659586979.0
liuzhou,109.3892,24.3126,92.35,58.0,66.0,1.79,CN,1659586980.0
douglas,-96.167,41.3,80.74,66.0,0.0,9.22,US,1659586980.0
san juan,-68.5364,-31.5375,50.76,48.0,0.0,2.13,AR,1659586980.0
fort nelson,-122.7002,58.8053,56.79,94.0,75.0,3.44,CA,1659586981.0
constitucion,-72.4167,-35.3333,46.11,87.0,1.0,5.3,CL,1659586981.0
prachuap khiri khan,99.75,12.2167,85.59,61.0,100.0,8.63,TH,1659586822.0
boundiali,-6.4869,9.5217,69.04,97.0,100.0,4.0,CI,1659586982.0
seymchan,152.4333,62.8833,71.28,68.0,86.0,4.61,RU,1659586982.0
sao joao da barra,-41.0511,-21.6403,67.26,87.0,0.0,2.17,BR,1659586983.0
aklavik,-135.0107,68.2191,66.34,56.0,99.0,5.21,CA,1659586983.0
moose factory,-80.6094,51.2585,55.4,88.0,100.0,4.61,CA,1659586983.0
tecoanapa,-98.75,16.5167,81.37,78.0,99.0,5.44,MX,1659586984.0
demerval lobao,-42.6764,-5.3583,80.01,65.0,72.0,4.68,BR,1659586984.0
lahij,44.5833,13.1667,84.49,55.0,88.0,4.92,YE,1659586985.0
forbes,148.0167,-33.3833,60.93,96.0,100.0,22.79,AU,1659586985.0
kendari,122.4989,-3.945,85.66,55.0,16.0,4.21,ID,1659586985.0
hervey bay,152.8535,-25.2986,67.84,77.0,0.0,10.09,AU,1659586765.0
olafsvik,-23.7142,64.8945,46.06,75.0,42.0,8.86,IS,1659586986.0
amga,131.9608,60.8953,79.12,57.0,84.0,3.76,RU,1659586986.0
beringovskiy,179.3167,63.05,50.34,83.0,100.0,5.39,RU,1659586986.0
yar-sale,70.8333,66.8333,70.29,47.0,24.0,10.71,RU,1659586987.0
christchurch,172.6333,-43.5333,61.92,39.0,75.0,9.22,NZ,1659586754.0
hay river,-115.7999,60.8156,57.18,62.0,20.0,11.5,CA,1659586962.0
kjollefjord,27.3465,70.9457,59.05,77.0,100.0,4.61,NO,1659586987.0
bodden town,-81.25,19.2833,82.92,82.0,15.0,8.63,KY,1659586988.0
san antonio,-98.4936,29.4241,86.77,67.0,0.0,20.71,US,1659586942.0
nanakuli,-158.1547,21.3906,84.15,57.0,20.0,12.66,US,1659586988.0
huanren,125.3667,41.2647,86.56,65.0,83.0,5.46,CN,1659586989.0
matagami,-77.6328,49.7502,64.51,94.0,100.0,4.61,CA,1659586989.0
berlevag,29.0864,70.8578,59.0,83.0,100.0,7.4,NO,1659586990.0
barsinghausen,9.4561,52.3105,71.74,88.0,43.0,4.76,DE,1659586990.0
havre,0.3333,49.5833,65.19,100.0,100.0,8.05,FR,1659586990.0
damara,18.7035,4.9608,68.32,97.0,76.0,2.46,CF,1659586991.0
jamame,42.7506,0.0722,75.02,80.0,23.0,10.71,SO,1659586991.0
dicabisagan,122.4157,17.0818,82.99,75.0,100.0,1.43,PH,1659586991.0
cheyenne,-104.8203,41.14,71.92,53.0,75.0,8.05,US,1659586992.0
kuruman,23.4325,-27.4524,41.99,82.0,0.0,2.13,ZA,1659586992.0
