city,lon,lat,Max Temp,Humidity,Cloudiness,Wind Speed,Country,Date
sao joao da barra,-41.0511,-21.6403,77.09,83.0,0.0,10.8,BR,1659558740.0
canton,113.25,23.1167,81.88,79.0,100.0,1.23,CN,1659558931.0
rikitea,-134.9692,-23.1203,71.96,68.0,52.0,15.35,PF,1659558701.0
cherskiy,161.3,68.75,45.61,85.0,100.0,7.65,RU,1659558743.0
punta arenas,-70.9167,-53.15,41.11,87.0,75.0,10.36,CL,1659558638.0
souillac,57.5167,-20.5167,70.18,78.0,40.0,9.22,MU,1659558708.0
husavik,-17.3389,66.0449,44.62,96.0,100.0,14.27,IS,1659558823.0
mahebourg,57.7,-20.4081,70.09,78.0,40.0,9.22,MU,1659558721.0
port alfred,26.891,-33.5906,61.18,83.0,39.0,1.01,ZA,1659558708.0
urdzhar,,,,,,,,
kavaratti,72.642,10.5669,77.61,90.0,100.0,33.98,IN,1659558880.0
salisbury,-1.7957,51.0693,68.81,75.0,40.0,9.22,GB,1659558999.0
pevek,170.3133,69.7008,35.22,99.0,100.0,9.13,RU,1659558748.0
busselton,115.3333,-33.65,53.08,72.0,89.0,17.69,AU,1659558707.0
ostersund,14.6357,63.1792,63.05,77.0,100.0,11.5,SE,1659559000.0
nisia floresta,-35.2086,-6.0911,81.41,88.0,34.0,4.9,BR,1659559000.0
bonavista,-53.1147,48.6499,67.37,90.0,91.0,9.64,CA,1659558828.0
jamestown,-79.2353,42.097,89.94,39.0,1.0,8.99,US,1659558487.0
ban nahin,104.2122,18.2418,74.16,99.0,100.0,1.63,LA,1659559000.0
bredasdorp,20.0403,-34.5322,49.06,92.0,5.0,6.42,ZA,1659558495.0
ushuaia,-68.3,-54.8,40.66,75.0,75.0,1.14,AR,1659558724.0
coahuayana,-103.6833,18.7333,90.68,57.0,99.0,5.3,MX,1659558868.0
grand river south east,,,,,,,,
thompson,-97.8558,55.7435,62.76,45.0,75.0,10.36,CA,1659558621.0
hilo,-155.09,19.7297,82.26,73.0,20.0,7.0,US,1659558714.0
butaritari,172.7902,3.0707,81.5,77.0,83.0,15.05,KI,1659558759.0
hithadhoo,73.0833,-0.6,81.0,74.0,95.0,17.18,MV,1659558781.0
barrow,-156.7887,71.2906,53.31,58.0,100.0,13.04,US,1659558715.0
sirjan,55.6814,29.452,76.37,26.0,0.0,7.29,IR,1659559002.0
basoko,23.616,1.2391,75.25,77.0,40.0,1.54,CD,1659559002.0
tortoli,9.6572,39.9256,80.42,78.0,20.0,13.8,IT,1659559003.0
provideniya,-173.3,64.3833,42.91,100.0,75.0,4.47,RU,1659558777.0
general roca,-67.5833,-39.0333,58.24,37.0,4.0,6.85,AR,1659559003.0
vestmannaeyjar,-20.2734,63.4427,49.33,72.0,45.0,25.23,IS,1659558780.0
hobart,147.3294,-42.8794,55.26,86.0,40.0,13.8,AU,1659558704.0
mrirt,,,,,,,,
kapaa,-159.319,22.0752,82.38,70.0,40.0,13.8,US,1659558699.0
bandarbeyla,50.8122,9.4942,75.81,86.0,10.0,32.61,SO,1659558791.0
bluff,168.3333,-46.6,44.8,72.0,100.0,20.15,NZ,1659558709.0
taolanaro,,,,,,,,
clyde river,-68.5914,70.4692,39.43,100.0,100.0,11.5,CA,1659558876.0
vaitupu,,,,,,,,
gayeri,0.4931,12.6497,80.98,66.0,65.0,6.31,BF,1659559004.0
qaanaaq,-69.3632,77.484,46.13,61.0,87.0,1.14,GL,1659558714.0
centralia,-122.9543,46.7162,72.05,35.0,4.0,7.96,US,1659558842.0
srednekolymsk,153.6833,67.45,51.49,87.0,100.0,4.79,RU,1659558774.0
albany,-73.9662,42.6001,90.68,43.0,7.0,1.99,US,1659558484.0
lebu,-73.65,-37.6167,51.06,79.0,76.0,3.65,CL,1659558745.0
attawapiskat,,,,,,,,
maniitsoq,-52.9,65.4167,45.48,95.0,100.0,7.38,GL,1659558866.0
nikolskoye,30.7861,59.7035,64.29,86.0,42.0,2.98,RU,1659558750.0
nago,127.9761,26.5881,83.25,82.0,100.0,4.61,JP,1659558909.0
codrington,141.9667,-38.2667,48.83,92.0,0.0,15.03,AU,1659558751.0
yellowknife,-114.3525,62.456,63.12,48.0,75.0,10.0,CA,1659558701.0
sobolevo,31.8996,54.4299,63.93,92.0,91.0,3.74,RU,1659559005.0
puerto ayora,-90.3518,-0.7393,78.76,81.0,70.0,8.99,EC,1659558760.0
baherden,57.4316,38.4362,87.49,25.0,0.0,4.47,TM,1659559006.0
dikson,80.5464,73.5069,41.76,100.0,100.0,9.51,RU,1659558776.0
saint-philippe,55.7679,-21.3585,65.79,83.0,50.0,7.92,RE,1659558700.0
iqaluit,-68.5145,63.7506,50.7,66.0,40.0,8.01,CA,1659558613.0
hsintien,,,,,,,,
iranshahr,60.6848,27.2025,97.14,14.0,0.0,6.91,IR,1659559007.0
belushya guba,,,,,,,,
flin flon,-101.865,54.7682,67.84,37.0,75.0,8.05,CA,1659558829.0
carnarvon,113.6333,-24.8667,65.1,58.0,100.0,17.83,AU,1659558738.0
kodiak,-152.4072,57.79,69.31,52.0,0.0,10.36,US,1659558573.0
tasiilaq,-37.6368,65.6145,46.56,70.0,79.0,5.08,GL,1659558706.0
vila velha,-40.2925,-20.3297,75.15,84.0,75.0,5.75,BR,1659558682.0
yanam,82.2167,16.7333,78.76,91.0,100.0,0.85,IN,1659558780.0
saldanha,17.9442,-33.0117,51.85,74.0,76.0,6.02,ZA,1659558778.0
kloulklubed,134.2556,7.0419,78.08,86.0,100.0,8.99,PW,1659559007.0
mataura,168.8643,-46.1927,44.47,85.0,100.0,4.45,NZ,1659558709.0
perez,-60.7679,-32.9983,57.09,72.0,0.0,12.66,AR,1659559008.0
bethel,-73.414,41.3712,91.04,48.0,0.0,4.61,US,1659558468.0
daru,143.2092,-9.0763,78.04,91.0,50.0,15.61,PG,1659559008.0
ust-nera,143.2,64.5667,67.95,73.0,62.0,6.06,RU,1659559009.0
fortuna,-124.1573,40.5982,72.93,76.0,35.0,13.8,US,1659558489.0
kavieng,150.7967,-2.5744,81.45,81.0,94.0,17.07,PG,1659558734.0
saskylakh,114.0833,71.9167,45.86,64.0,100.0,7.96,RU,1659558641.0
alofi,-169.9187,-19.0595,76.89,78.0,20.0,12.66,NU,1659558763.0
maldonado,-54.9167,-34.6667,53.22,93.0,100.0,4.25,UY,1659559009.0
dwarka,68.9678,22.2394,82.4,77.0,100.0,9.78,IN,1659559010.0
bathsheba,-59.5167,13.2167,84.06,85.0,75.0,16.11,BB,1659558804.0
berlevag,29.0864,70.8578,60.6,93.0,75.0,0.0,NO,1659558772.0
paradwip,,,,,,,,
torbay,-52.7314,47.6666,75.38,78.0,75.0,19.57,CA,1659558716.0
madang,145.7966,-5.2246,76.35,90.0,82.0,3.69,PG,1659559010.0
svetlaya,138.3297,46.5389,65.26,99.0,88.0,1.1,RU,1659559011.0
luderitz,15.1594,-26.6481,54.82,91.0,0.0,12.08,NA,1659558729.0
dongsheng,109.9776,39.8161,74.88,62.0,59.0,12.95,CN,1659558848.0
upernavik,-56.1549,72.7868,44.62,76.0,4.0,11.05,GL,1659558717.0
olafsvik,-23.7142,64.8945,49.57,66.0,15.0,11.05,IS,1659558776.0
hamilton,-84.5333,39.1834,94.24,58.0,40.0,18.41,US,1659558710.0
cape town,18.4232,-33.9258,55.9,81.0,75.0,6.91,ZA,1659558633.0
turayf,38.6637,31.6725,89.85,19.0,0.0,9.22,SA,1659559012.0
caravelas,-39.2481,-17.7125,70.21,76.0,36.0,6.35,BR,1659558759.0
salalah,54.0924,17.0151,78.89,94.0,100.0,4.61,OM,1659558711.0
igrim,64.4162,63.1906,60.3,61.0,9.0,5.39,RU,1659558744.0
lekoni,14.2591,-1.5843,81.9,47.0,75.0,4.56,GA,1659559012.0
mount gambier,140.7667,-37.8333,49.32,91.0,16.0,11.83,AU,1659558693.0
barentsburg,,,,,,,,
homocea,27.2333,46.1333,69.06,65.0,2.0,6.4,RO,1659559013.0
kirakira,161.9205,-10.4544,80.55,80.0,10.0,8.7,SB,1659558843.0
salinopolis,-47.3561,-0.6136,80.4,79.0,65.0,12.3,BR,1659559013.0
ambilobe,49.05,-13.2,65.12,80.0,0.0,4.68,MG,1659559013.0
carutapera,-46.02,-1.195,78.42,82.0,32.0,7.92,BR,1659558799.0
vanimo,141.3028,-2.6741,76.66,92.0,100.0,5.19,PG,1659558754.0
tuktoyaktuk,-133.0374,69.4541,50.0,81.0,40.0,5.75,CA,1659558711.0
saint-georges,-61.7485,12.0564,76.68,94.0,75.0,17.27,GD,1659558723.0
montecristi,-80.6667,-1.05,75.02,73.0,75.0,9.22,EC,1659559014.0
atuona,-139.0333,-9.8,77.25,78.0,16.0,14.03,PF,1659558744.0
yuxia,108.6291,34.0615,81.21,65.0,0.0,4.9,CN,1659559014.0
atasu,71.6433,48.6814,64.42,81.0,100.0,8.25,KZ,1659559015.0
kaitangata,169.8464,-46.2817,43.9,81.0,100.0,4.27,NZ,1659558705.0
vaini,-175.2,-21.2,77.16,88.0,40.0,9.22,TO,1659558723.0
shimoda,138.95,34.6667,77.11,89.0,66.0,10.45,JP,1659559015.0
cabo san lucas,-109.9124,22.8909,94.6,51.0,0.0,8.05,MX,1659558707.0
ayan,138.1667,56.45,56.28,94.0,100.0,12.55,RU,1659559016.0
klaksvik,-6.589,62.2266,49.12,80.0,69.0,16.26,FO,1659558718.0
akyab,92.9,20.15,82.11,83.0,100.0,11.21,MM,1659558785.0
kungurtug,97.5228,50.5994,49.8,85.0,30.0,1.36,RU,1659559016.0
mweka,21.5667,-4.85,76.35,57.0,81.0,2.3,CD,1659559016.0
dudinka,86.1778,69.4058,49.62,69.0,11.0,2.37,RU,1659559017.0
chokurdakh,147.9167,70.6333,46.35,76.0,100.0,10.25,RU,1659558716.0
ribeira grande,-28.7,38.5167,79.2,83.0,75.0,11.5,PT,1659558709.0
ban mo,100.7273,14.6154,82.29,92.0,100.0,4.38,TH,1659559017.0
tubruq,,,,,,,,
meridian,-116.3915,43.6121,95.52,31.0,0.0,6.91,US,1659559018.0
hammerfest,23.6821,70.6634,63.05,55.0,0.0,6.91,NO,1659559018.0
youghal,-7.8506,51.95,60.1,90.0,68.0,11.21,IE,1659559018.0
samarai,150.6667,-10.6167,80.71,84.0,94.0,14.67,PG,1659558787.0
poum,164.0167,-20.2333,74.7,85.0,5.0,9.13,NC,1659559019.0
aizkraukle,25.2553,56.6048,56.79,80.0,14.0,4.68,LV,1659559019.0
aykhal,111.5,66.0,40.1,97.0,100.0,23.94,RU,1659558762.0
jawhar,45.5005,2.7809,74.98,78.0,49.0,14.81,SO,1659559019.0
kiama,150.8667,-34.6833,66.0,78.0,100.0,3.0,AU,1659559020.0
saint george,-113.5841,37.1041,102.79,25.0,0.0,4.0,US,1659558621.0
esperance,121.9,-33.8667,54.54,70.0,89.0,30.8,AU,1659558704.0
balrampur,82.1833,27.4333,80.2,87.0,100.0,7.0,IN,1659559020.0
vardo,31.1107,70.3705,51.78,100.0,100.0,9.22,NO,1659558792.0
salt,35.7272,32.0392,81.68,46.0,4.0,3.11,JO,1659559021.0
nguiu,,,,,,,,
cidreira,-50.2056,-30.1811,62.78,91.0,97.0,19.35,BR,1659558746.0
alma,-71.6491,48.5501,77.13,58.0,98.0,7.99,CA,1659558957.0
jiroft,,,,,,,,
tiksi,128.8694,71.6872,44.47,77.0,99.0,8.25,RU,1659558738.0
slovenj gradec,15.0806,46.5103,69.85,73.0,0.0,0.78,SI,1659559021.0
agirish,63.0231,61.9247,58.48,68.0,9.0,4.94,RU,1659558959.0
bainbridge,-122.5212,47.6262,83.17,50.0,0.0,6.91,US,1659559022.0
vao,167.4833,-22.6667,72.21,81.0,24.0,15.05,NC,1659558811.0
bayir,28.2167,37.2687,70.32,40.0,1.0,3.53,TR,1659559023.0
new norfolk,147.0587,-42.7826,54.91,88.0,67.0,4.34,AU,1659558711.0
puerto escondido,-97.0667,15.85,86.83,62.0,75.0,4.61,MX,1659559024.0
avarua,-159.775,-21.2078,73.45,64.0,100.0,13.8,CK,1659558701.0
pingliang,106.6861,35.5392,69.03,86.0,5.0,2.64,CN,1659559024.0
lolua,,,,,,,,
hermanus,19.2345,-34.4187,53.8,82.0,1.0,13.58,ZA,1659558569.0
dakar,-17.4441,14.6937,82.53,78.0,0.0,4.61,SN,1659559025.0
santa rosa del sur,-74.0544,7.9644,79.56,73.0,99.0,3.02,CO,1659558885.0
inhambane,35.3833,-23.865,65.59,68.0,0.0,6.49,MZ,1659558854.0
leningradskiy,178.4167,69.3833,42.91,89.0,100.0,4.18,RU,1659558557.0
port elizabeth,25.5701,-33.918,61.09,63.0,0.0,4.61,ZA,1659558704.0
karratha,116.8463,-20.7377,63.66,69.0,4.0,10.56,AU,1659558867.0
bend,-121.3153,44.0582,94.14,27.0,0.0,12.66,US,1659558984.0
paamiut,-49.6678,61.994,50.68,82.0,100.0,32.23,GL,1659559026.0
bud,-86.1758,39.447,91.98,64.0,10.0,14.74,US,1659559027.0
tumannyy,,,,,,,,
mys shmidta,,,,,,,,
grindavik,-22.4338,63.8424,52.27,62.0,75.0,19.57,IS,1659558554.0
brae,-1.353,60.3964,52.11,82.0,38.0,14.0,GB,1659558733.0
kahului,-156.47,20.8947,84.22,54.0,20.0,18.41,US,1659558825.0
lyubinskiy,72.6925,55.1542,62.28,83.0,2.0,6.31,RU,1659559028.0
khatanga,102.5,71.9667,50.02,67.0,100.0,8.43,RU,1659558739.0
severodvinsk,39.8302,64.5635,55.51,74.0,53.0,7.96,RU,1659559029.0
shestakovo,103.96,56.4915,46.54,93.0,8.0,1.88,RU,1659559030.0
sirpur,79.6,19.4833,79.0,87.0,99.0,6.04,IN,1659559032.0
port hardy,-127.4199,50.6996,55.58,94.0,100.0,5.75,CA,1659558827.0
bambous virieux,57.7575,-20.3428,70.05,78.0,40.0,9.22,MU,1659558720.0
batie,-2.9167,9.8833,73.27,89.0,100.0,4.65,BF,1659559033.0
turan,108.2208,16.0678,78.78,89.0,20.0,1.14,VN,1659558852.0
nizhneyansk,,,,,,,,
lagos,3.75,6.5833,79.12,78.0,92.0,7.31,NG,1659558971.0
richards bay,32.0377,-28.783,65.93,69.0,27.0,14.7,ZA,1659559033.0
luanda,13.2343,-8.8368,68.0,88.0,40.0,9.22,AO,1659558810.0
mercedes,-59.4307,-34.6515,57.85,70.0,68.0,9.73,AR,1659559034.0
champerico,-91.9167,14.3,93.74,74.0,79.0,4.63,GT,1659559034.0
bengkulu,102.2655,-3.8004,74.25,92.0,93.0,1.95,ID,1659558746.0
charters towers,146.2667,-20.1,62.22,86.0,52.0,8.28,AU,1659558815.0
portland,-122.6762,45.5234,86.99,44.0,0.0,6.91,US,1659558675.0
salta,-65.4117,-24.7859,63.19,64.0,75.0,10.36,AR,1659558518.0
tunduru,,,,,,,,
ostrovnoy,39.5131,68.0531,54.5,89.0,45.0,13.24,RU,1659559036.0
longyearbyen,15.6401,78.2186,49.84,81.0,75.0,12.66,SJ,1659558779.0
beloha,45.05,-25.1667,63.82,82.0,0.0,12.19,MG,1659558842.0
saint-augustin,-58.6502,51.226,71.94,53.0,18.0,7.83,CA,1659558861.0
tual,132.75,-5.6667,80.13,83.0,76.0,15.1,ID,1659558765.0
arraial do cabo,-42.0278,-22.9661,71.56,73.0,20.0,8.05,BR,1659558728.0
kathmandu,85.3167,27.7167,71.82,88.0,75.0,2.3,NP,1659559038.0
ciudad bolivar,-63.5497,8.1222,83.93,70.0,85.0,9.75,VE,1659559039.0
moville,-96.0725,42.4889,96.44,13.0,16.0,16.42,US,1659559039.0
isabela,121.9711,6.7085,78.21,86.0,100.0,4.56,PH,1659559040.0
illoqqortoormiut,,,,,,,,
pozo colorado,-58.7972,-23.4923,91.78,23.0,100.0,6.62,PY,1659559040.0
biltine,20.9167,14.5333,81.07,53.0,97.0,11.23,TD,1659559040.0
bilibino,166.4372,68.0546,54.55,97.0,100.0,2.75,RU,1659558763.0
asyut,31.1837,27.181,89.78,20.0,0.0,10.51,EG,1659559041.0
carroll,-77.0164,39.5501,92.08,51.0,40.0,5.01,US,1659559041.0
gornyy,83.9059,55.1153,56.23,60.0,91.0,3.71,RU,1659559042.0
yialos,,,,,,,,
oktyabrskiy,53.471,54.4815,63.72,80.0,43.0,3.44,RU,1659559042.0
atambua,124.8925,-9.1061,68.14,84.0,100.0,5.93,ID,1659559043.0
tsihombe,,,,,,,,
arlit,7.3853,18.7369,96.44,26.0,4.0,14.85,NE,1659558841.0
mildura,142.15,-34.2,54.54,65.0,61.0,4.56,AU,1659559043.0
mokhsogollokh,128.9203,61.4681,63.41,91.0,100.0,3.94,RU,1659559044.0
ilulissat,-51.1,69.2167,51.82,54.0,40.0,8.05,GL,1659558830.0
deputatskiy,139.9,69.3,40.57,91.0,100.0,4.47,RU,1659558638.0
aklavik,-135.0107,68.2191,59.0,63.0,75.0,3.44,CA,1659558798.0
mandalgovi,106.2708,45.7625,59.0,82.0,0.0,12.24,MN,1659559045.0
pergamino,-60.5736,-33.89,62.44,49.0,43.0,10.98,AR,1659559045.0
norman wells,-126.8329,65.282,59.04,77.0,75.0,16.11,CA,1659558718.0
aktau,51.2,43.65,79.38,36.0,11.0,12.41,KZ,1659559046.0
ananindeua,-48.3722,-1.3656,85.91,66.0,75.0,8.05,BR,1659559046.0
grand gaube,57.6608,-20.0064,70.2,76.0,99.0,4.0,MU,1659558836.0
severo-kurilsk,156.125,50.6789,53.87,84.0,39.0,7.09,RU,1659558773.0
azangaro,-70.2167,-14.9167,62.74,8.0,2.0,12.73,PE,1659559047.0
geraldton,114.6,-28.7667,59.41,63.0,40.0,12.66,AU,1659558681.0
lavrentiya,-171.0,65.5833,49.39,82.0,17.0,7.25,RU,1659558712.0
hihifo,,,,,,,,
amderma,,,,,,,,
dalby,151.2667,-27.1833,55.94,88.0,21.0,5.79,AU,1659559048.0
villa carlos paz,-64.4978,-31.4241,61.9,31.0,87.0,5.99,AR,1659559048.0
hurghada,33.8129,27.2574,91.44,27.0,0.0,10.36,EG,1659558789.0
katsuura,140.3,35.1333,77.23,92.0,84.0,18.16,JP,1659558447.0
dawei,98.2,14.0833,77.16,94.0,100.0,8.61,MM,1659559049.0
hasaki,140.8333,35.7333,73.8,90.0,100.0,11.59,JP,1659558498.0
dunedin,170.5036,-45.8742,47.8,75.0,100.0,5.01,NZ,1659558743.0
dmitriyevka,55.3333,54.75,62.15,79.0,0.0,3.31,RU,1659559049.0
san quintin,-115.95,30.4833,77.0,66.0,64.0,16.2,MX,1659559050.0
solnechnyy,136.6319,50.7214,61.68,97.0,92.0,3.89,RU,1659559050.0
takoradi,-1.7554,4.8845,72.68,80.0,8.0,8.43,GH,1659559051.0
challans,-1.8749,46.8436,79.72,85.0,93.0,9.17,FR,1659559051.0
airai,125.4092,-8.9266,54.75,70.0,93.0,2.55,TL,1659558735.0
rio grande,-52.0986,-32.035,62.71,99.0,100.0,10.69,BR,1659558721.0
mega,38.3,4.05,61.47,64.0,75.0,15.17,ET,1659559051.0
labuhan,112.2051,-6.8844,75.79,86.0,93.0,8.84,ID,1659559052.0
constitucion,-72.4167,-35.3333,52.93,73.0,54.0,11.14,CL,1659558830.0
westport,-73.3579,41.1415,93.09,52.0,0.0,8.05,US,1659559052.0
veraval,70.3667,20.9,81.61,83.0,94.0,5.3,IN,1659558737.0
aripuana,-60.6333,-9.1667,93.45,34.0,73.0,1.43,BR,1659559053.0
mar del plata,-57.5575,-38.0023,50.88,92.0,100.0,9.22,AR,1659558714.0
galiwinku,,,,,,,,
lasa,10.7002,46.6166,70.68,88.0,18.0,1.5,IT,1659559053.0
kudahuvadhoo,72.8944,2.6708,81.1,77.0,95.0,19.26,MV,1659558864.0
ponta do sol,-17.1,32.6667,73.71,82.0,2.0,7.67,PT,1659558699.0
miles city,-105.8406,46.4083,94.17,14.0,0.0,17.27,US,1659559054.0
stramberk,18.1174,49.5918,67.68,70.0,0.0,0.0,CZ,1659559054.0
caningay,122.6442,9.8297,75.79,88.0,100.0,3.15,PH,1659559054.0
santa barbara,-120.0343,34.7333,92.34,38.0,0.0,9.22,US,1659558590.0
ahipara,173.1667,-35.1667,53.33,91.0,4.0,3.51,NZ,1659558498.0
jinzhou,121.1417,41.1078,77.76,89.0,85.0,5.79,CN,1659559055.0
eureka,-124.1637,40.8021,95.74,80.0,30.0,7.0,US,1659558945.0
nieuw amsterdam,-55.0833,5.8833,81.01,81.0,40.0,6.91,SR,1659559055.0
filingue,3.3168,14.3521,92.41,42.0,47.0,0.67,NE,1659559056.0
eyl,49.8164,7.9803,76.51,81.0,100.0,23.67,SO,1659558838.0
chuy,-53.4616,-33.6971,57.52,99.0,100.0,5.28,UY,1659558717.0
fort nelson,-122.7002,58.8053,62.19,63.0,75.0,0.0,CA,1659558788.0
chornyanka,33.359,46.6522,69.04,73.0,0.0,5.57,UA,1659559056.0
novikovo,37.8879,51.1537,65.14,88.0,100.0,5.37,RU,1659559056.0
garowe,48.4845,8.4054,75.02,68.0,33.0,29.37,SO,1659559057.0
teknaf,92.3058,20.8624,80.08,88.0,100.0,7.4,BD,1659558757.0
fort-shevchenko,50.263,44.5086,83.23,44.0,54.0,11.34,KZ,1659558759.0
laguna,-121.4238,38.421,102.09,35.0,0.0,4.61,US,1659558757.0
aswan,32.907,24.0934,96.1,17.0,0.0,9.22,EG,1659559057.0
discovery bay,-121.6002,37.9085,98.56,34.0,0.0,6.91,US,1659559058.0
iwaki,140.8833,37.05,75.78,96.0,100.0,5.19,JP,1659559058.0
shu,73.7614,43.5983,69.21,65.0,7.0,3.74,KZ,1659559058.0
komsomolskiy,71.7189,40.4272,76.14,39.0,2.0,0.6,UZ,1659558493.0
saint-jean-de-maurienne,6.5833,45.1667,55.04,72.0,85.0,2.44,FR,1659559059.0
tarko-sale,77.785,64.9225,57.6,60.0,96.0,4.16,RU,1659558700.0
tungkang,,,,,,,,
voyvozh,54.9635,62.892,61.03,72.0,100.0,4.81,RU,1659559059.0
nouadhibou,-17.0347,20.931,75.18,78.0,75.0,9.22,MR,1659558713.0
normandin,-72.5321,48.8333,71.91,49.0,99.0,10.36,CA,1659559017.0
kamaishi,141.8833,39.2667,68.88,90.0,77.0,6.33,JP,1659559060.0
viligili,,,,,,,,
guerrero negro,-114.0611,27.9769,79.32,60.0,20.0,19.1,MX,1659559060.0
ancud,-73.8203,-41.8697,45.23,73.0,96.0,10.16,CL,1659558767.0
spirovo,34.9766,57.419,60.37,89.0,45.0,3.02,RU,1659559061.0
marawi,124.2928,7.9986,69.48,95.0,100.0,1.54,PH,1659559061.0
okha,142.9478,53.5739,55.78,96.0,100.0,14.2,RU,1659559061.0
vostok,135.8833,46.4856,64.29,95.0,67.0,3.11,RU,1659559062.0
gamboula,15.1393,4.1178,68.74,94.0,99.0,2.46,CF,1659559062.0
pallasovka,46.8833,50.05,74.41,49.0,100.0,8.39,RU,1659559062.0
mzimba,33.6,-11.9,56.82,78.0,3.0,7.54,MW,1659559063.0
iguatemi,-54.5611,-23.6803,79.93,35.0,4.0,5.26,BR,1659559063.0
arona,-16.681,28.0996,71.69,69.0,0.0,17.27,ES,1659558743.0
vila franca do campo,-25.4333,37.7167,72.01,85.0,36.0,6.49,PT,1659558757.0
sardulgarh,75.25,29.7,85.46,75.0,74.0,6.62,IN,1659559064.0
zyryanka,150.85,65.75,54.86,94.0,100.0,7.67,RU,1659558797.0
el alto,-81.2147,-4.2714,74.86,70.0,38.0,12.37,PE,1659558702.0
sur,59.5289,22.5667,86.11,68.0,11.0,12.57,OM,1659558812.0
antalaha,50.2788,-14.9003,65.5,86.0,9.0,6.35,MG,1659559064.0
cozumel,-86.9458,20.5083,93.27,68.0,40.0,11.01,MX,1659558871.0
egvekinot,-179.1667,66.3167,51.51,72.0,57.0,6.04,RU,1659558884.0
utiroa,,,,,,,,
sioux lookout,-91.917,50.1001,68.07,64.0,75.0,13.8,CA,1659558621.0
umm kaddadah,26.6876,13.6017,83.68,45.0,99.0,7.94,SD,1659558831.0
quelimane,36.8883,-17.8786,71.55,83.0,75.0,5.75,MZ,1659559065.0
santa cruz de la palma,-17.7642,28.6835,76.14,78.0,75.0,16.11,ES,1659559065.0
flinders,150.8552,-34.5833,65.37,75.0,99.0,3.0,AU,1659559066.0
dharchula,80.5333,29.85,73.58,97.0,100.0,1.07,IN,1659558849.0
sundsvall,17.3063,62.3913,64.36,99.0,40.0,5.75,SE,1659559066.0
camana,-72.7111,-16.6228,62.85,77.0,26.0,13.51,PE,1659559066.0
lovozero,35.0117,68.005,53.71,74.0,58.0,7.09,RU,1659559067.0
padang,100.3543,-0.9492,76.06,91.0,100.0,5.44,ID,1659559067.0
ribas do rio pardo,-53.7592,-20.4431,85.51,20.0,100.0,3.04,BR,1659558867.0
nanortalik,-45.2371,60.1432,51.24,87.0,100.0,19.24,GL,1659558707.0
chernyshevskiy,112.4714,63.0128,57.51,98.0,100.0,5.35,RU,1659559068.0
adrar,-10.0711,20.5022,99.45,23.0,9.0,10.96,MR,1659558735.0
leirvik,5.5005,59.7798,58.86,87.0,26.0,10.49,NO,1659559015.0
beringovskiy,179.3167,63.05,52.14,78.0,100.0,7.9,RU,1659558710.0
qianan,124.0581,44.9932,71.87,91.0,0.0,5.93,CN,1659559068.0
kaeo,173.7833,-35.1,54.32,97.0,21.0,5.61,NZ,1659558842.0
barawe,,,,,,,,
pinawa,-95.8811,50.1489,69.82,49.0,51.0,11.81,CA,1659558963.0
nemuro,145.575,43.3236,59.41,91.0,98.0,9.62,JP,1659558824.0
sumbawa,,,,,,,,
warman,-106.5679,52.3168,73.31,40.0,75.0,12.66,CA,1659559069.0
louisbourg,,,,,,,,
nyahururu,36.3673,0.0421,52.54,93.0,100.0,3.24,KE,1659559070.0
tete,33.5867,-16.1564,69.89,73.0,40.0,6.91,MZ,1659558865.0
santa cruz del sur,-77.9956,20.7147,90.27,51.0,6.0,7.16,CU,1659559070.0
talnakh,88.3972,69.4865,49.21,62.0,12.0,5.66,RU,1659558702.0
sola,167.55,-13.8833,81.34,73.0,15.0,13.15,VU,1659558738.0
buchanan,-10.0467,5.8808,75.7,86.0,88.0,10.49,LR,1659559070.0
sept-iles,-66.3821,50.2001,68.0,45.0,75.0,12.66,CA,1659559071.0
hofn,-15.2082,64.2539,48.29,74.0,68.0,19.89,IS,1659558817.0
savannah bight,-85.85,16.45,82.9,74.0,100.0,13.6,HN,1659559071.0
naze,129.4833,28.3667,77.92,87.0,71.0,4.32,JP,1659559071.0
namibe,12.1522,-15.1961,60.12,81.0,3.0,4.45,AO,1659558886.0
yelizovo,158.3805,53.1873,55.11,100.0,75.0,4.0,RU,1659559072.0
sabang,95.3214,5.8933,81.52,70.0,100.0,21.79,ID,1659559072.0
sungairaya,108.9,0.7,76.82,89.0,79.0,0.45,ID,1659559073.0
karaul,,,,,,,,
port hedland,118.5667,-20.3167,57.25,88.0,4.0,5.75,AU,1659559073.0
taranagar,75.0351,28.6709,88.95,61.0,94.0,4.34,IN,1659559073.0
san patricio,-97.5169,28.017,101.17,39.0,51.0,21.5,US,1659558760.0
bilma,12.9164,18.6853,89.29,41.0,19.0,0.83,NE,1659558779.0
gargzdai,21.4033,55.7128,62.38,82.0,25.0,9.1,LT,1659559074.0
ranfurly,170.1,-45.1333,38.14,81.0,91.0,4.79,NZ,1659559074.0
victor harbor,138.6167,-35.5667,52.68,67.0,0.0,20.94,AU,1659559074.0
mikkeli,27.2723,61.6886,62.71,67.0,20.0,5.75,FI,1659559075.0
lugovskiy,,,,,,,,
victoria,114.1577,22.2855,82.45,85.0,100.0,4.0,HK,1659558488.0
talara,-81.2719,-4.5772,77.76,61.0,0.0,14.97,PE,1659558814.0
karauzyak,,,,,,,,
mani,-72.2886,4.8172,81.18,77.0,88.0,5.7,CO,1659559075.0
pacific grove,-121.9166,36.6177,86.23,80.0,40.0,10.36,US,1659558628.0
asuncion,-57.6359,-25.3007,92.64,29.0,0.0,8.05,PY,1659558792.0
denpasar,115.2167,-8.65,78.46,88.0,40.0,6.91,ID,1659558808.0
kerema,145.7785,-7.9631,77.18,90.0,44.0,5.41,PG,1659559076.0
panjab,67.0233,34.388,54.45,55.0,5.0,5.37,AF,1659559076.0
flagstaff,-111.6513,35.1981,87.46,65.0,40.0,10.36,US,1659558778.0
zhigansk,123.3711,66.7697,43.93,71.0,100.0,20.76,RU,1659559077.0
asahikawa,142.3703,43.7678,65.16,86.0,100.0,2.04,JP,1659558850.0
kantilo,85.1833,20.35,79.93,83.0,100.0,1.36,IN,1659559077.0
kruisfontein,24.7314,-34.0033,54.7,92.0,75.0,5.55,ZA,1659558804.0
qiqihar,123.9672,47.3408,71.33,83.0,16.0,5.48,CN,1659559077.0
sitka,-135.33,57.0531,58.89,82.0,20.0,6.91,US,1659558599.0
zachepylivka,35.2394,49.1939,64.81,91.0,77.0,5.01,UA,1659559078.0
dong hoi,106.6,17.4833,78.78,85.0,100.0,7.16,VN,1659559078.0
simplicio mendes,-41.9103,-7.8539,81.16,48.0,71.0,10.38,BR,1659559079.0
sabha,14.4283,27.0377,91.27,24.0,19.0,10.65,LY,1659559079.0
oksfjord,22.3479,70.2396,62.67,68.0,100.0,9.08,NO,1659558923.0
nakano,138.3667,36.75,76.37,90.0,9.0,1.12,JP,1659559079.0
shetpe,52.1167,44.1667,81.1,28.0,6.0,8.59,KZ,1659558731.0
cockburn harbour,,,,,,,,
karasjok,25.5112,69.4719,54.99,78.0,100.0,6.89,NO,1659559080.0
toliary,,,,,,,,
chegem,43.1333,43.2833,51.93,83.0,8.0,6.85,RU,1659559080.0
coquimbo,-71.3436,-29.9533,58.73,62.0,75.0,4.61,CL,1659558856.0
khani,42.9566,41.9563,65.77,95.0,50.0,1.34,GE,1659558824.0
along,94.7667,28.1667,74.19,98.0,100.0,1.7,IN,1659559081.0
leicester,-1.1317,52.6386,69.53,63.0,13.0,7.58,GB,1659559081.0
east london,27.9116,-33.0153,71.04,47.0,97.0,7.99,ZA,1659558526.0
vanavara,102.2797,60.34,52.48,95.0,100.0,3.89,RU,1659559082.0
saint-pierre,55.4781,-21.3393,65.88,73.0,0.0,6.91,RE,1659558846.0
nantucket,-70.0995,41.2835,82.54,78.0,0.0,10.36,US,1659559082.0
aurangabad,75.3333,19.8833,77.52,81.0,93.0,6.24,IN,1659559009.0
griffith,-87.4237,41.5284,87.13,40.0,51.0,16.24,US,1659558848.0
oum hadjer,19.6966,13.2954,77.94,75.0,100.0,10.56,TD,1659559083.0
port macquarie,152.9167,-31.4333,57.25,83.0,67.0,7.56,AU,1659558867.0
georgetown,100.3354,5.4112,78.89,91.0,20.0,0.0,MY,1659558492.0
alice springs,133.8833,-23.7,69.35,43.0,100.0,9.22,AU,1659558783.0
murray bridge,139.2667,-35.1167,55.13,62.0,0.0,16.58,AU,1659559084.0
samusu,,,,,,,,
mehamn,27.8492,71.0357,53.55,94.0,0.0,3.44,NO,1659558830.0
borlange,,,,,,,,
cayenne,-52.3333,4.9333,84.24,1.0,20.0,5.75,GF,1659558600.0
gibara,-76.1317,21.1097,85.32,66.0,8.0,16.13,CU,1659559084.0
el guayabito,-86.0333,14.8333,82.06,69.0,40.0,13.8,HN,1659559085.0
faya,42.4509,18.3851,66.31,89.0,96.0,7.63,SA,1659558788.0
beyneu,55.2,45.3167,84.15,27.0,5.0,6.44,KZ,1659559085.0
idah,6.7342,7.1065,72.63,94.0,44.0,4.25,NG,1659559086.0
katobu,122.5276,-4.9408,71.31,94.0,39.0,2.71,ID,1659559086.0
baiyin,104.2081,36.5583,74.86,61.0,82.0,7.31,CN,1659558703.0
acarau,-40.12,-2.8856,78.89,71.0,81.0,14.12,BR,1659558688.0
meyungs,,,,,,,,
jales,-50.5458,-20.2689,81.57,27.0,62.0,5.55,BR,1659559087.0
lagoa,-27.9833,39.05,75.76,86.0,4.0,9.91,PT,1659558566.0
labuan,115.2417,5.2767,77.36,94.0,20.0,0.0,MY,1659559087.0
faanui,-151.75,-16.4833,78.6,75.0,7.0,21.27,PF,1659558742.0
aksha,113.2867,50.2814,62.46,99.0,100.0,2.73,RU,1659559088.0
ahuimanu,-157.8378,21.4447,82.85,66.0,40.0,12.66,US,1659559088.0
khormuj,,,,,,,,
jardim,-56.1381,-21.4803,87.62,21.0,30.0,4.76,BR,1659559089.0
alotau,,,,,,,,
sebeta,38.6167,8.9167,62.64,94.0,63.0,1.05,ET,1659559089.0
camara de lobos,-16.9667,32.6333,72.72,87.0,20.0,13.8,PT,1659559091.0
marcona,,,,,,,,
tasbuget,,,,,,,,
ponta delgada,-25.6667,37.7333,72.32,94.0,75.0,6.91,PT,1659559091.0
lac du bonnet,-96.0612,50.2536,68.9,53.0,54.0,11.63,CA,1659559092.0
pinega,43.3936,64.7001,54.72,83.0,47.0,4.38,RU,1659559092.0
topchikha,83.1185,52.8192,52.92,73.0,9.0,7.58,RU,1659559093.0
charlestown,151.6667,-32.95,62.42,84.0,100.0,7.0,AU,1659559093.0
xuddur,43.8894,4.1213,73.33,70.0,100.0,23.15,SO,1659559093.0
kununurra,128.7333,-15.7667,62.58,88.0,95.0,0.0,AU,1659559094.0
mount isa,139.5,-20.7333,60.57,77.0,0.0,4.61,AU,1659558570.0
dauphin,-100.0502,51.1494,66.34,68.0,100.0,3.44,CA,1659559094.0
pucara,-71.4606,-15.9803,42.93,29.0,0.0,12.15,PE,1659559095.0
zhangjiakou,114.8794,40.81,74.61,78.0,100.0,2.44,CN,1659558742.0
wasilla,-149.4394,61.5814,70.52,69.0,0.0,5.75,US,1659558842.0
porangatu,-49.1486,-13.4408,85.53,23.0,2.0,4.16,BR,1659558706.0
yerbogachen,108.0108,61.2767,53.55,93.0,96.0,10.25,RU,1659559096.0
yomitan,,,,,,,,
uray,64.7758,60.1247,57.83,71.0,19.0,4.18,RU,1659559096.0
te anau,167.7167,-45.4167,45.91,88.0,97.0,8.21,NZ,1659559096.0
cotonou,2.4183,6.3654,75.18,88.0,20.0,12.66,BJ,1659558959.0
wuwei,102.6414,37.9281,75.76,60.0,98.0,3.74,CN,1659559097.0
bubaque,-15.8333,11.2833,80.26,80.0,100.0,10.83,GW,1659559097.0
nishihara,127.7558,26.1842,82.45,86.0,20.0,3.44,JP,1659558760.0
narsaq,-46.05,60.9167,53.82,75.0,100.0,3.33,GL,1659558753.0
capaci,13.2393,38.1711,83.25,57.0,0.0,8.05,IT,1659559098.0
ramsar,50.6426,36.9226,80.04,89.0,75.0,2.3,IR,1659559098.0
lata,-8.3327,40.1629,62.08,96.0,1.0,2.93,PT,1659558735.0
juba,31.5825,4.8517,74.08,68.0,59.0,3.53,SS,1659559099.0
tuatapere,167.6833,-46.1333,45.86,81.0,100.0,7.65,NZ,1659558494.0
pitkyaranta,31.4792,61.5734,58.98,77.0,66.0,6.24,RU,1659559099.0
san jeronimo,-75.2829,-11.9472,64.54,36.0,21.0,7.16,PE,1659559100.0
bowen,148.2333,-20.0167,66.9,85.0,99.0,7.49,AU,1659558884.0
aborlan,118.5492,9.4352,78.19,82.0,100.0,1.95,PH,1659559101.0
port said,32.2841,31.2565,80.58,83.0,0.0,6.91,EG,1659559101.0
alcaniz,-0.1333,41.05,78.39,55.0,97.0,12.77,ES,1659559101.0
huarmey,-78.1522,-10.0681,66.67,74.0,26.0,13.11,PE,1659559102.0
dubti,41.0853,11.7361,91.83,42.0,100.0,3.62,ET,1659559102.0
caconda,15.0667,-13.7333,60.78,42.0,13.0,3.96,AO,1659559103.0
marau,-52.2,-28.4492,75.15,88.0,5.0,4.14,BR,1659559103.0
altamont,-121.7372,42.2068,87.89,33.0,40.0,8.05,US,1659559103.0
nanakuli,-158.1547,21.3906,83.1,59.0,20.0,9.22,US,1659559104.0
coihaique,-72.0662,-45.5752,40.95,87.0,75.0,8.05,CL,1659558923.0
san juan,-68.5364,-31.5375,59.52,37.0,99.0,0.94,AR,1659558980.0
lompoc,-120.4579,34.6391,94.69,68.0,0.0,14.97,US,1659558753.0
kamenskoye,,,,,,,,
sangar,127.4739,63.9242,60.8,94.0,81.0,0.43,RU,1659559105.0
ajdabiya,20.2263,30.7554,83.52,37.0,0.0,12.46,LY,1659558793.0
sosnovka,51.2842,56.255,63.0,80.0,73.0,2.48,RU,1659559106.0
slatina,24.3667,44.4333,81.46,33.0,72.0,7.96,RO,1659559106.0
banda aceh,95.3222,5.5577,78.69,72.0,100.0,13.94,ID,1659559107.0
waipawa,175.5153,-41.4122,48.63,80.0,100.0,5.91,NZ,1659559107.0
adre,22.2,13.4667,71.46,83.0,72.0,12.68,TD,1659559108.0
anadyr,177.4833,64.75,64.9,39.0,0.0,4.47,RU,1659558814.0
whitehorse,-135.0538,60.7161,59.77,77.0,75.0,12.66,CA,1659559108.0
riyadh,46.7219,24.6877,100.54,28.0,59.0,10.18,SA,1659558789.0
bitung,125.1824,1.4451,74.25,86.0,43.0,13.06,ID,1659559108.0
ulagan,87.9563,50.6321,49.55,98.0,33.0,1.3,RU,1659559109.0
anloga,0.8973,5.7947,73.89,80.0,85.0,13.29,GH,1659559109.0
port lincoln,135.8667,-34.7333,56.61,66.0,3.0,26.08,AU,1659558788.0
ulaanbaatar,106.8832,47.9077,57.33,88.0,40.0,4.47,MN,1659559110.0
valparaiso,-71.6273,-33.0393,57.43,54.0,40.0,11.5,CL,1659559110.0
avera,-82.5271,33.194,94.51,66.0,93.0,10.42,US,1659559111.0
nome,-165.4064,64.5011,51.87,87.0,100.0,4.61,US,1659558705.0
sayansk,102.1648,54.1088,51.3,94.0,99.0,4.29,RU,1659559111.0
manicore,-61.3003,-5.8092,84.15,74.0,98.0,4.61,BR,1659559112.0
amapa,-52.0,1.0,79.32,79.0,67.0,3.49,BR,1659559112.0
oda,132.5,35.1833,78.49,88.0,31.0,13.24,JP,1659559113.0
los llanos de aridane,-17.9182,28.6585,72.12,88.0,75.0,16.11,ES,1659558763.0
thunder bay,-89.3168,48.4001,78.78,50.0,75.0,19.57,CA,1659559089.0
huambo,15.7392,-12.7761,67.23,34.0,67.0,0.72,AO,1659559021.0
beaverlodge,-119.4361,55.2166,69.15,33.0,100.0,12.59,CA,1659559113.0
atherton,-2.4935,53.5237,65.28,71.0,86.0,5.01,GB,1659559114.0
tiznit,-9.5,29.5833,87.12,31.0,100.0,4.07,MA,1659558727.0
vredendal,18.5012,-31.6683,51.06,92.0,0.0,4.74,ZA,1659559114.0
guanare,-69.7421,9.0418,84.22,70.0,97.0,3.44,VE,1659559114.0
lephepe,,,,,,,,
boa vista,-60.6733,2.8197,85.98,62.0,40.0,5.75,BR,1659558834.0
marakkanam,79.95,12.2,79.9,82.0,100.0,7.54,IN,1659559115.0
krasnyy luch,38.9371,48.1395,67.32,80.0,35.0,3.49,UA,1659559115.0
ixtapa,-105.2,20.7,89.22,70.0,40.0,10.36,MX,1659559116.0
buriti,-45.3881,-22.9302,80.37,41.0,40.0,4.61,BR,1659559116.0
oranjemund,16.4333,-28.55,53.42,96.0,6.0,6.08,NA,1659559117.0
rogun,,,,,,,,
am timan,20.2827,11.0297,75.43,83.0,85.0,2.93,TD,1659559117.0
farrukhnagar,78.2011,17.0778,74.91,86.0,100.0,3.33,IN,1659559117.0
manta,-80.7333,-0.95,76.78,73.0,75.0,9.22,EC,1659559028.0
kjollefjord,27.3465,70.9457,53.42,94.0,0.0,3.44,NO,1659559118.0
guayaramerin,-65.3614,-10.8368,92.14,36.0,89.0,2.35,BO,1659559118.0
udachnyy,112.4,66.4167,44.46,86.0,100.0,19.8,RU,1659559118.0
prado,-39.2208,-17.3411,70.11,77.0,22.0,7.02,BR,1659558992.0
bathurst,149.5806,-33.4166,56.97,88.0,100.0,4.56,AU,1659559119.0
isangel,169.2667,-19.55,77.41,83.0,2.0,5.77,VU,1659558734.0
concarneau,-3.9225,47.875,73.69,92.0,73.0,9.8,FR,1659559119.0
lancut,22.2291,50.0687,67.24,78.0,0.0,5.75,PL,1659559068.0
sinnamary,-52.95,5.3833,80.56,83.0,80.0,10.94,GF,1659559120.0
northam,-4.2167,51.0333,61.61,87.0,60.0,9.64,GB,1659558876.0
sarakhs,61.1577,36.5449,82.44,25.0,0.0,6.22,IR,1659558883.0
rawannawi,,,,,,,,
komsomolskoye,47.5461,55.2567,63.18,81.0,38.0,2.19,RU,1659559120.0
lagoa da prata,-45.5436,-20.0225,74.25,34.0,4.0,3.58,BR,1659559121.0
palabuhanratu,,,,,,,,
dingle,122.6711,10.9995,76.64,91.0,100.0,3.98,PH,1659558731.0
livingston,-3.5226,55.9029,59.14,81.0,75.0,9.22,GB,1659558883.0
alihe,123.7167,50.5667,67.53,90.0,91.0,0.98,CN,1659559121.0
morristown,-83.2949,36.214,92.34,53.0,0.0,4.61,US,1659559122.0
surt,16.5887,31.2089,81.52,66.0,0.0,11.14,LY,1659559122.0
khoy,44.9535,38.5504,78.03,42.0,0.0,5.17,IR,1659559122.0
mezen,44.24,65.8522,53.29,82.0,83.0,6.76,RU,1659559123.0
longlac,,,,,,,,
sentyabrskiy,,,,,,,,
vrangel,133.0839,42.7297,70.63,97.0,100.0,3.83,RU,1659559123.0
pangnirtung,-65.7125,66.1451,46.4,81.0,75.0,5.75,CA,1659558838.0
kholodnyy,147.95,62.7167,59.86,79.0,100.0,4.52,RU,1659559123.0
north platte,-100.7654,41.1239,95.07,29.0,0.0,3.0,US,1659558977.0
jujuy,,,,,,,,
rio gallegos,-69.2181,-51.6226,39.25,93.0,75.0,9.22,AR,1659559124.0
ust-barguzin,108.9833,53.45,53.15,96.0,97.0,3.47,RU,1659559125.0
imbituba,-48.6703,-28.24,67.08,90.0,21.0,11.99,BR,1659558829.0
benito juarez,-99.165,19.385,79.0,30.0,20.0,9.22,MX,1659559125.0
kaduqli,29.7167,11.0167,72.32,89.0,100.0,3.06,SD,1659559125.0
ngukurr,,,,,,,,
ploemeur,-3.4333,47.7333,73.49,73.0,0.0,6.91,FR,1659559126.0
petropavlovsk-kamchatskiy,158.6483,53.0452,52.39,100.0,75.0,2.24,RU,1659558739.0
ladario,-57.6017,-19.0047,93.49,24.0,0.0,10.36,BR,1659558978.0
meulaboh,96.1285,4.1363,73.99,91.0,100.0,3.76,ID,1659559126.0
hobyo,48.5268,5.3505,76.37,83.0,93.0,27.2,SO,1659559127.0
bandiagara,-3.6104,14.3501,78.55,77.0,20.0,10.76,ML,1659559127.0
namatanai,152.4333,-3.6667,78.62,85.0,55.0,10.51,PG,1659558865.0
qui nhon,109.2333,13.7667,78.82,81.0,100.0,5.08,VN,1659559127.0
pokosnoye,101.0536,55.5258,52.03,73.0,91.0,2.91,RU,1659559128.0
atar,-13.0499,20.5169,94.96,29.0,10.0,11.03,MR,1659559128.0
bonthe,-12.505,7.5264,75.94,87.0,97.0,8.3,SL,1659558748.0
djambala,14.7533,-2.5447,76.87,52.0,98.0,3.04,CG,1659559129.0
xinzhi,111.7047,36.4989,79.07,76.0,3.0,3.18,CN,1659559129.0
panzhihua,101.7128,26.5851,69.69,94.0,50.0,1.25,CN,1659559129.0
marietta,-84.5499,33.9526,93.49,59.0,75.0,8.05,US,1659559041.0
college,-147.8028,64.8569,69.01,69.0,40.0,3.44,US,1659558799.0
saleaula,,,,,,,,
labutta,,,,,,,,
koyilandi,,,,,,,,
rajula,71.4333,21.05,82.0,77.0,100.0,7.0,IN,1659559130.0
moron,-58.6198,-34.6534,60.49,75.0,64.0,8.3,AR,1659558486.0
imeni poliny osipenko,136.4853,52.4201,56.79,97.0,100.0,7.67,RU,1659559130.0
sistranda,8.834,63.7256,58.96,85.0,96.0,17.92,NO,1659558711.0
malwan,,,,,,,,
tura,90.2201,25.5198,74.16,95.0,100.0,2.64,IN,1659558772.0
uige,15.0613,-7.6087,68.36,64.0,26.0,1.92,AO,1659559131.0
kendari,122.4989,-3.945,71.62,93.0,85.0,3.09,ID,1659559131.0
sorland,12.6934,67.667,55.26,92.0,99.0,15.79,NO,1659558821.0
indramayu,108.32,-6.3264,77.85,80.0,94.0,6.13,ID,1659559132.0
lemesos,,,,,,,,
berdigestyakh,126.6992,62.0989,64.22,88.0,88.0,4.05,RU,1659558853.0
najran,44.1277,17.4924,84.85,56.0,81.0,7.11,SA,1659559133.0
arrifes,-25.7,37.7667,70.05,94.0,75.0,6.91,PT,1659559133.0
sibolga,98.7792,1.7427,73.29,89.0,100.0,4.07,ID,1659558878.0
rio grande city,-98.8203,26.3798,103.1,19.0,12.0,22.55,US,1659559133.0
kurumkan,110.3,54.3,58.86,82.0,100.0,2.48,RU,1659559134.0
dagda,27.5372,56.0951,57.67,69.0,7.0,2.75,LV,1659559134.0
miraflores,-98.8083,19.2167,78.03,50.0,76.0,2.62,MX,1659558837.0
mahibadhoo,72.9667,3.7833,81.61,76.0,100.0,22.93,MV,1659559134.0
la ronge,-105.2842,55.1001,64.65,52.0,75.0,6.91,CA,1659558616.0
khandyga,135.6,62.6667,63.9,93.0,100.0,2.86,RU,1659559135.0
tabriz,46.2919,38.08,80.06,39.0,20.0,11.5,IR,1659559135.0
puerto maldonado,-69.1833,-12.6,86.4,66.0,40.0,3.44,PE,1659559015.0
novopokrovka,36.5477,49.8425,65.44,96.0,100.0,6.24,UA,1659559135.0
aflu,,,,,,,,
bogense,10.0886,55.5669,66.33,93.0,5.0,8.1,DK,1659558875.0
veinticinco de mayo,-60.1727,-35.4323,57.72,71.0,1.0,8.61,AR,1659558997.0
litoral del san juan,,,,,,,,
chifeng,118.9636,42.2683,75.99,75.0,99.0,4.32,CN,1659558879.0
azimur,,,,,,,,
morant bay,-76.4093,17.8815,88.72,71.0,100.0,11.36,JM,1659559136.0
chicama,-79.1469,-7.8447,63.14,67.0,24.0,9.75,PE,1659559137.0
katherine,132.2667,-14.4667,73.72,68.0,37.0,0.0,AU,1659559137.0
taoudenni,-3.9836,22.6783,105.53,12.0,25.0,9.64,ML,1659558838.0
fort saint john,,,,,,,,
narasannapeta,84.05,18.4167,81.36,78.0,100.0,2.64,IN,1659559137.0
manoel urbano,-69.2597,-8.8389,84.43,64.0,100.0,2.46,BR,1659559138.0
evensk,159.2333,61.95,52.5,97.0,100.0,7.07,RU,1659559138.0
koumac,164.2833,-20.5667,74.07,86.0,12.0,6.51,NC,1659558755.0
kysyl-syr,122.7617,63.8986,51.3,66.0,71.0,8.7,RU,1659559138.0
baoro,15.9667,5.6667,68.02,92.0,92.0,1.14,CF,1659559139.0
castro,-50.0119,-24.7911,64.2,63.0,4.0,4.9,BR,1659558755.0
sao filipe,-24.4956,14.8961,77.45,85.0,75.0,4.41,CV,1659558780.0
muzaffarpur,85.4,26.1167,83.28,78.0,100.0,9.19,IN,1659559139.0
puerto baquerizo moreno,-89.6,-0.9,76.19,57.0,75.0,10.36,EC,1659559140.0
palu,119.8707,-0.8917,74.44,95.0,37.0,2.71,ID,1659559140.0
tarudant,,,,,,,,
novoagansk,76.6625,61.9449,54.52,64.0,94.0,2.59,RU,1659559140.0
la rioja,-2.5,42.25,65.98,67.0,45.0,5.59,ES,1659559141.0
cairns,145.7667,-16.9167,70.07,93.0,67.0,5.75,AU,1659558797.0
port blair,92.75,11.6667,78.84,89.0,100.0,8.05,IN,1659558761.0
north bend,-124.2243,43.4065,76.24,83.0,0.0,12.66,US,1659559141.0
taphan hin,100.4198,16.2209,76.75,95.0,100.0,5.82,TH,1659559141.0
marsala,12.4352,37.7966,82.35,78.0,0.0,4.61,IT,1659559142.0
raudeberg,5.1352,61.9875,58.96,70.0,96.0,22.35,NO,1659559143.0
durango,-104.8333,24.8333,82.44,30.0,59.0,9.35,MX,1659558876.0
gelemso,40.5167,8.8167,64.15,76.0,77.0,2.59,ET,1659559143.0
roma,-75.4557,43.2128,89.82,45.0,0.0,3.44,US,1659558859.0
pak phanang,100.202,8.3511,78.08,83.0,100.0,10.13,TH,1659559144.0
pisco,-76.2167,-13.7,66.25,63.0,0.0,8.05,PE,1659558862.0
margate,1.3862,51.3813,71.69,78.0,78.0,3.0,GB,1659559145.0
lokosovo,74.8167,61.1333,55.9,73.0,94.0,3.62,RU,1659559145.0
kolobrzeg,15.5834,54.1757,75.15,52.0,100.0,10.45,PL,1659558919.0
placido de castro,-67.1856,-10.3353,93.56,35.0,91.0,1.9,BR,1659559146.0
sambava,50.1667,-14.2667,66.36,88.0,3.0,9.24,MG,1659558791.0
stephenville,-98.2023,32.2207,103.77,23.0,0.0,8.05,US,1659559146.0
aleksandrovskiy zavod,117.9374,50.9237,62.98,90.0,79.0,3.6,RU,1659559147.0
